typeofcase,date,time,location,area,address,lat,lon,state_code
自行車竊盜,1060101,10~12,六合里松仁路240巷1 ~ 30號,信義區,信義區六合里松仁路240巷1號,25.024732,121.5693188,553426908
自行車竊盜,1060103,16~18,圓山捷運站1 ~ 30號出口,中山區,中山區圓山捷運站1號,25.071353,121.520118,554427004
自行車竊盜,1060105,19~21,東湖國中(內湖區康樂街151巷內)旁人行,內湖區,`內湖區東湖國中(內湖區康樂街151巷內)旁人行,25.072164899999997,121.61942179999998,554427027
自行車竊盜,1060106,16~18,木柵里029鄰木柵路3段91 ~ 120號,文山區,文山區木柵里029鄰木柵路3段91號,24.988858,121.56778600000001,552626786
自行車竊盜,1060107,04~06,龍泉里和平東路1段181 ~ 210號,大安區,大安區龍泉里和平東路1段181號,25.0264466,121.5328981,553426905
自行車竊盜,1060107,22~24,天祥路60巷1 ~ 30號,中山區,中山區天祥路60巷1號,25.0622438,121.5205203,554226988
自行車竊盜,1060108,01~03,玉門街1 ~ 30號,中山區,中山區玉門街1號,25.0704569,121.52046100000001,554427002
自行車竊盜,1060108,10~12,福興里自強街61 ~ 90號,北投區,北投區福興里自強街61號,25.110473499999998,121.5139692,555327047
自行車竊盜,1060108,16~18,徐州路,中正區,中正區徐州路,25.0409967,121.52222179999998,553726941
自行車竊盜,1060110,19~21,住安里信義路4段1 ~ 30號捷運大安站4號出口,大安區,大安區住安里信義路4段1號,25.0335555,121.5442987,553626927
自行車竊盜,1060112,04~06,仁慈里復興南路1段279巷1 ~ 30號,大安區,大安區仁慈里復興南路1段279巷1號,25.0356521,121.5456028,553626933
自行車竊盜,1060116,04~06,錦泰里金華街102巷,大安區,大安區錦泰里金華街102巷,25.030047,121.52565190000001,553526913
自行車竊盜,1060116,07~09,德華里福國路61 ~ 90號,士林區,士林區德華里福國路61號,25.1017967,121.52352979999999,555127043
自行車竊盜,1060117,10~12,萬和里溪洲街萬隆街口,文山區,文山區萬和里溪洲街萬隆街口,25.004394,121.53540100000001,552926836
自行車竊盜,1060117,10~12,至聖里承德路3段241 ~ 270號,大同區,大同區至聖里承德路3段241號,25.071054,121.518774,554427003
自行車竊盜,1060117,10~12,萬年里汀州路4段105巷,文山區,文山區萬年里汀州路4段105巷,25.0064435,121.5374158,553026843
自行車竊盜,1060118,07~09,全安里安和路2段211 ~ 240號,大安區,大安區全安里安和路2段211號,25.0260715,121.55018590000002,553426908
自行車竊盜,1060118,07~09,芳和里基隆路2段291巷,大安區,大安區芳和里基隆路2段291巷,25.021739,121.55011200000001,553326895
自行車竊盜,1060119,16~18,華聲里光復南路72巷61 ~ 90號,大安區,大安區華聲里光復南路72巷61號,25.0439878,121.55506489999999,553826956
自行車竊盜,1060121,07~09,稻香里中央北路2段271 ~ 300號,北投區,北投區稻香里中央北路2段271號,25.138384,121.49070400000001,555927048
自行車竊盜,1060122,07~09,三犁里信義路5段象山捷運站1 ~ 30號出口,信義區,信義區三犁里信義路5段象山捷運站1號,25.032764999999998,121.57035400000001,553526931
自行車竊盜,1060123,07~09,大有里民樂街121 ~ 150號,大同區,大同區大有里民樂街121號,25.0576212,121.51064699999999,554126976
自行車竊盜,1060123,16~18,內湖路1段360巷1 ~ 30號,內湖區,內湖區內湖路1段360巷1號,25.0823114,121.568353,554627031
自行車竊盜,1060123,16~18,大同里清江路61 ~ 90號,北投區,北投區大同里清江路61號,25.1305016,121.50196880000001,555727051
自行車竊盜,1060124,13~15,景慶里羅斯福路6段211 ~ 240號,文山區,文山區景慶里羅斯福路6段211號,24.9946742,121.54152659999998,552726802
自行車竊盜,1060124,19~21,德行里福國路31 ~ 60號芝山捷運站1號出口,士林區,士林區德行里福國路31號,25.1018587,121.5242412,555127043
自行車竊盜,1060125,07~09,基隆路與和平東路口六張犁捷運站出口前,大安區,大安區基隆路與和平東路口六張犁捷運站出口前,25.023768,121.5518525,553326901
自行車竊盜,1060131,04~06,新生北路2段68巷1 ~ 30號,中山區,中山區新生北路2段68巷1號,25.0448483,121.53319350000001,553826953
自行車竊盜,1060202,22~24,龍江路370巷31 ~ 60號,中山區,中山區龍江路370巷31號,25.066524899999997,121.539285,554327000
自行車竊盜,1060203,13~15,景華里景興路31 ~ 60號,文山區,文山區景華里景興路31號,24.997565899999998,121.544896,552826813
自行車竊盜,1060205,13~15,景華里景中街22巷旁,文山區,文山區景華里景中街22巷旁,24.993722,121.542239,552726799
自行車竊盜,1060206,22~24,萬隆里景隆街1 ~ 30號,文山區,文山區萬隆里景隆街1號,25.0002723,121.540342,552826822
自行車竊盜,1060207,10~12,市民大道路3段1 ~ 30號,中正區,中正區市民大道路3段1號,25.045098,121.5613131,553826960
自行車竊盜,1060208,07~09,安東街16巷1 ~ 30號,中山區,中山區安東街16巷1號,25.04550960000001,121.5420989,553826957
自行車竊盜,1060208,19~21,古風里辛亥路1段91 ~ 120號,大安區,大安區古風里辛亥路1段91號,25.021835999999997,121.530864,553326891
自行車竊盜,1060209,04~06,明義里016鄰興隆路4段107巷31 ~ 60號,文山區,文山區明義里016鄰興隆路4段107巷31號,24.9875,121.56070600000001,552526779
自行車竊盜,1060211,13~15,東門里中山南路1 ~ 30號,中正區,中正區東門里中山南路1號,25.0439998,121.5195803,553826948
自行車竊盜,1060212,13~15,景慶里羅斯福路6段181 ~ 210號,文山區,文山區景慶里羅斯福路6段181號,24.9966759,121.541211,552726809
自行車竊盜,1060213,10~12,景慶里景福街211 ~ 240號,文山區,文山區景慶里景福街211號,24.9945469,121.538128,552726801
自行車竊盜,1060214,16~18,龍生里復興南路2段211 ~ 240號,大安區,大安區龍生里復興南路2段211號,25.0281634,121.5432632,553426912
自行車竊盜,1060215,10~12,永康里信義路2段151 ~ 180號,大安區,大安區永康里信義路2段151號,25.0337725,121.5339929,553626925
自行車竊盜,1060215,19~21,萬有里羅斯福路6段91 ~ 120號,文山區,文山區萬有里羅斯福路6段91號,24.9984389,121.540649,552826816
自行車竊盜,1060217,04~06,水源里羅斯福路4段136巷6弄1 ~ 30號,中正區,中正區水源里羅斯福路4段136巷6弄1號,25.012583,121.5357,553126863
自行車竊盜,1060218,10~12,永春里忠孝東路5段後山埤捷運站1 ~ 30號出口,信義區,信義區永春里忠孝東路5段後山埤捷運站1號,25.0451065,121.5831295,553826965
自行車竊盜,1060218,10~12,玉成公園旁玉成公園旁,南港區,南港區玉成公園旁玉成公園旁,25.042081699999997,121.58557739999999,553826958
自行車竊盜,1060218,10~12,南京東路5段123巷8弄31 ~ 60號,松山區,松山區南京東路5段123巷8弄31號,25.053599300000002,121.5623366,554026979
自行車竊盜,1060218,19~21,龍圖里建國南路2段大安森林公園1 ~ 30號出口,大安區,大安區龍圖里建國南路2段大安森林公園1號,25.0320486,121.53739879999999,553526922
自行車竊盜,1060219,13~15,廣州街209巷1 ~ 30號,萬華區,萬華區廣州街209巷1號,25.0367889,121.50028600000002,553626926
自行車竊盜,1060220,16~18,三重里捷運南港展覽館站1 ~ 30號出口,南港區,南港區三重里捷運南港展覽館站1號,25.0554052,121.6178521,554026996
自行車竊盜,1060221,01~03,國業里虎林街222巷31 ~ 60號,信義區,信義區國業里虎林街222巷31號,25.036727,121.576631,553626943
自行車竊盜,1060222,01~03,螢圃里汀州路2段61 ~ 90號,中正區,中正區螢圃里汀州路2段61號,25.0332565,121.5042912,553626917
自行車竊盜,1060222,04~06,黎平里富陽街21巷18弄1 ~ 30號,信義區,信義區黎平里富陽街21巷18弄1號,25.022865,121.55712820000001,553326900
自行車竊盜,1060222,07~09,敦安里仁愛路4段122巷,大安區,大安區敦安里仁愛路4段122巷,25.0354549,121.5502591,553626933
自行車竊盜,1060223,13~15,南福里羅斯福路1段61 ~ 90號,中正區,中正區南福里羅斯福路1段61號,25.0316586,121.51938340000001,553526916
自行車竊盜,1060226,19~21,廣州街211 ~ 240號,萬華區,萬華區廣州街211號,25.0367954,121.49993059999998,553626926
自行車竊盜,1060227,16~18,西門節運一號出口,萬華區,萬華區西門節運一號出口,25.041771,121.50703500000002,553726940
自行車竊盜,1060228,10~12,康定路74巷2弄1 ~ 30號,萬華區,萬華區康定路74巷2弄1號,25.041992,121.502031,553726939
自行車竊盜,1060228,19~21,福住里新生南路2段31 ~ 60號,大安區,大安區福住里新生南路2段31號,25.03331,121.532393,553626924
自行車竊盜,1060301,07~09,黎明里常德街1 ~ 30號,中正區,中正區黎明里常德街1號,25.0416163,121.51719440000001,553726942
自行車竊盜,1060301,13~15,西新里向陽路31 ~ 60號,南港區,南港區西新里向陽路31號,25.0535818,121.5947692,554026987
自行車竊盜,1060301,19~21,景行里羅斯福路6段401巷,文山區,文山區景行里羅斯福路6段401巷,24.9919234,121.5408797,552626792
自行車竊盜,1060303,19~21,福林里18鄰中正路235巷31 ~ 60號,士林區,士林區福林里18鄰中正路235巷31號,25.0944379,121.5262635,554927036
自行車竊盜,1060304,16~18,大有里安西街21巷1 ~ 30號,大同區,大同區大有里安西街21巷1號,25.059866,121.51017,554126981
自行車竊盜,1060305,07~09,五全里永吉路278巷57弄1 ~ 30號,信義區,信義區五全里永吉路278巷57弄1號,25.043445300000002,121.57425549999999,553826959
自行車竊盜,1060307,01~03,義安里信義路4段186巷,大安區,大安區義安里信義路4段186巷,25.033004199999997,121.5516989,553526927
自行車竊盜,1060308,22~24,中南里市民大道8段541 ~ 570號,南港區,南港區中南里市民大道8段541號,25.0540128,121.61352250000002,554026992
自行車竊盜,1060311,16~18,石牌里西安街1段明德捷運站旁腳踏車停車格,北投區,北投區石牌里西安街1段明德捷運站旁腳踏車停車格,25.10972000000001,121.51884799999999,555227047
自行車竊盜,1060312,07~09,政大里020鄰萬壽路61 ~ 90號,文山區,文山區政大里020鄰萬壽路61號,24.989239,121.5792903,552626790
自行車竊盜,1060313,22~24,成功路2段115巷47弄31 ~ 60號,內湖區,內湖區成功路2段115巷47弄31號,25.064868899999997,121.59306699999999,554327009
自行車竊盜,1060314,13~15,康定路271 ~ 300號,萬華區,萬華區康定路271號,25.034398,121.50126599999999,553626920
自行車竊盜,1060315,10~12,龍泉里泰順街44巷1 ~ 30號,大安區,大安區龍泉里泰順街44巷1號,25.023688,121.5312,553326896
自行車竊盜,1060315,16~18,隆和里延平北路3段景化街口,大同區,大同區隆和里延平北路3段景化街口,25.0633642,121.51117959999999,554226988
自行車竊盜,1060316,10~12,東明里南港路2段31 ~ 60號,南港區,南港區東明里南港路2段31號,25.0535182,121.6029774,554026988
自行車竊盜,1060317,10~12,學府里羅斯福路4段1 ~ 30號,大安區,大安區學府里羅斯福路4段1號,25.0159129,121.532802,553226873
自行車竊盜,1060322,13~15,保安里重慶北路3段313巷1 ~ 30號,大同區,大同區保安里重慶北路3段313巷1號,25.0740624,121.5140293,554527007
自行車竊盜,1060322,19~21,桃源里中央北路3段53巷1 ~ 30號,北投區,北投區桃源里中央北路3段53巷1號,25.137621,121.4928,555927048
自行車竊盜,1060325,19~21,學府里羅斯福路4段113巷1 ~ 30號,大安區,大安區學府里羅斯福路4段113巷1號,25.011141000000002,121.537719,553126859
自行車竊盜,1060328,16~18,義信里1鄰中山北路5段61 ~ 90號,士林區,士林區義信里1鄰中山北路5段61號,25.0836456,121.5255917,554727023
自行車竊盜,1060329,10~12,保安里承德路3段庫倫街,大同區,大同區保安里承德路3段庫倫街,25.071887399999998,121.5185553,554427004
自行車竊盜,1060401,19~21,建民里文林北路31 ~ 60號,北投區,北投區建民里文林北路31號,25.1044106,121.5184945,555127044
自行車竊盜,1060402,07~09,光明里信義路與杭州南路口,大安區,大安區光明里信義路與杭州南路口,25.035332699999998,121.52431909999999,553626927
自行車竊盜,1060403,13~15,承德里中山北路5段61 ~ 90號劍潭捷運站2號出口,士林區,士林區承德里中山北路5段61號,25.0823886,121.5254017,554627022
自行車竊盜,1060403,16~18,黎和里和平東路3段346巷1 ~ 30號,大安區,大安區黎和里和平東路3段346巷1號,25.0193285,121.5573985,553226889
自行車竊盜,1060404,19~21,中南里忠孝東路7段511 ~ 540號,南港區,南港區中南里忠孝東路7段511號,25.052925899999998,121.6120314,554026989
自行車竊盜,1060405,10~12,德昌街185巷1 ~ 30號,萬華區,萬華區德昌街185巷1號,25.0233646,121.4945361,553326887
自行車竊盜,1060406,13~15,復興北路421 ~ 450號,中山區,中山區復興北路421號,25.063083,121.5444532,554226995
自行車竊盜,1060408,19~21,內湖路一段285巷口捷運西湖站旁自行車停,內湖區,內湖區內湖路一段285巷口捷運西湖站旁自行車停,25.0829158,121.5666872,554727032
自行車竊盜,1060408,19~21,吉利里致遠二路113巷1 ~ 30號,北投區,北投區吉利里致遠二路113巷1號,25.117171600000002,121.5116888,555427050
自行車竊盜,1060410,22~24,德安里四維路1 ~ 30號,大安區,大安區德安里四維路1號,25.0338044,121.5478793,553626929
自行車竊盜,1060413,16~18,芳和里和平東路3段151 ~ 180號,大安區,大安區芳和里和平東路3段151號,25.02419410000001,121.55308740000001,553426903
自行車竊盜,1060415,13~15,安康里信義路象山捷運站1 ~ 30號出口,信義區,信義區安康里信義路象山捷運站1號,25.032764999999998,121.57035400000001,553526931
自行車竊盜,1060416,01~03,八德路3段74巷14弄31 ~ 60號,松山區,松山區八德路3段74巷14弄31號,25.047219000000002,121.552194,553926963
自行車竊盜,1060416,22~24,龍坡里泰順街31 ~ 60號,大安區,大安區龍坡里泰順街31號,25.024351,121.531462,553426898
自行車竊盜,1060420,16~18,新生北路3段1 ~ 30號,中山區,中山區新生北路3段1號,25.0628897,121.5281771,554226991
自行車竊盜,1060421,22~24,芳和里樂業街108巷1 ~ 30號,大安區,大安區芳和里樂業街108巷1號,25.0209996,121.55158870000001,553326893
自行車竊盜,1060423,16~18,松壽路1 ~ 30號,信義區,信義區松壽路1號,25.036535999999998,121.56402,553626939
自行車竊盜,1060424,13~15,學府里羅斯福路4段1 ~ 30號,大安區,大安區學府里羅斯福路4段1號,25.0159129,121.532802,553226873
自行車竊盜,1060427,07~09,古莊里羅斯福路2段61 ~ 90號,大安區,大安區古莊里羅斯福路2段61號,25.0235023,121.5248336,553326895
自行車竊盜,1060501,01~03,復興北路421 ~ 450號,中山區,中山區復興北路421號,25.063083,121.5444532,554226995
自行車竊盜,1060502,07~09,榮光里西安街1段313巷1 ~ 30號,北投區,北投區榮光里西安街1段313巷1號,25.112788600000002,121.51609450000001,555327048
自行車竊盜,1060503,22~24,西新里南港路3段106巷5弄1 ~ 30號,南港區,南港區西新里南港路3段106巷5弄1號,25.0541872,121.58936840000001,554026987
自行車竊盜,1060504,01~03,西新里昆陽街60巷1 ~ 30號,南港區,南港區西新里昆陽街60巷1號,25.052178899999998,121.59265800000001,554026983
自行車竊盜,1060504,01~03,玉成里南港路3段121 ~ 150號,南港區,南港區玉成里南港路3段121號,25.053199,121.586428,554026984
自行車竊盜,1060504,10~12,南京西路64段1 ~ 30號,大同區,大同區南京西路64段1號,25.05288,121.51866799999999,554026968
自行車竊盜,1060505,07~09,富水里思源街1 ~ 30號,中正區,中正區富水里思源街1號,25.014372,121.53217120000001,553126868
自行車竊盜,1060505,10~12,學府里羅斯福路4段1 ~ 30號,大安區,大安區學府里羅斯福路4段1號,25.0159129,121.532802,553226873
自行車竊盜,1060505,16~18,永昌里寧波西街181 ~ 210號,中正區,中正區永昌里寧波西街181號,25.0266038,121.5107662,553426900
自行車竊盜,1060506,01~03,八德路2段410巷88弄1 ~ 30號,松山區,松山區八德路2段410巷88弄1號,25.046238600000002,121.54660559999999,553826959
自行車竊盜,1060506,16~18,愛國里延平南路258巷與和平西路口,中正區,中正區愛國里延平南路258巷與和平西路口,25.032586,121.50658100000001,553526916
自行車竊盜,1060506,19~21,幸福里成功高中校門左側,中正區,中正區幸福里成功高中校門左側,25.042875199999997,121.5237972,553826946
自行車竊盜,1060508,19~21,蘭雅里德行東路109巷1 ~ 30號,士林區,士林區蘭雅里德行東路109巷1號,25.107856299999998,121.52824509999999,555227048
自行車竊盜,1060509,16~18,龍圖里信義路3段91 ~ 120號,大安區,大安區龍圖里信義路3段91號,25.033877,121.533515,553626926
自行車竊盜,1060510,10~12,健康路325巷24弄1 ~ 30號,松山區,松山區健康路325巷24弄1號,25.0566478,121.5674364,554126987
自行車竊盜,1060512,01~03,健康路325巷12弄1 ~ 30號,松山區,松山區健康路325巷12弄1號,25.0555402,121.5673455,554026985
自行車竊盜,1060514,04~06,福興里承德路7段91 ~ 120號,北投區,北投區福興里承德路7段91號,25.1108605,121.51090659999998,555327046
自行車竊盜,1060514,16~18,興得里25鄰興隆路3段211 ~ 240號,文山區,文山區興得里25鄰興隆路3段211號,24.994676000000002,121.559772,552726806
自行車竊盜,1060514,19~21,萬芳里005鄰萬安街1 ~ 30號,文山區,文山區萬芳里005鄰萬安街1號,25.002091,121.57081299999999,552926835
自行車竊盜,1060516,01~03,永春里松山路287巷1 ~ 30號,信義區,信義區永春里松山路287巷1號,25.042961,121.578271,553826959
自行車竊盜,1060518,04~06,至聖里承德路3段214巷1 ~ 30號,大同區,大同區至聖里承德路3段214巷1號,25.070475,121.51878300000001,554427002
自行車竊盜,1060518,07~09,康寧路3段189巷11弄1 ~ 30號,內湖區,內湖區康寧路3段189巷11弄1號,25.0703632,121.61241480000001,554427023
自行車竊盜,1060521,07~09,雅祥里基隆路1段1 ~ 30號,信義區,信義區雅祥里基隆路1段1號,25.0500914,121.57001340000001,553926973
自行車竊盜,1060522,04~06,芝山里德行東路301 ~ 330號,士林區,士林區芝山里德行東路301號,25.1102956,121.5368425,555327052
自行車竊盜,1060522,13~15,南門里廣州街8巷口（南門國中旁）,中正區,中正區南門里廣州街8巷口（南門國中旁）,25.0348844,121.5081615,553626923
自行車竊盜,1060526,10~12,福興里自強街5段1 ~ 30號,北投區,北投區福興里自強街5段1號,25.110165600000002,121.51241909999999,555327046
自行車竊盜,1060526,16~18,文北里杭州南路1段71巷1 ~ 30號,中正區,中正區文北里杭州南路1段71巷1號,25.0396762,121.5257156,553726939
自行車竊盜,1060527,16~18,內湖路一段571 ~ 600號,內湖區,內湖區內湖路一段571號,25.0810536,121.57261969999999,554627030
自行車竊盜,1060530,10~12,關渡里大度路3段301巷121 ~ 150號,北投區,北投區關渡里大度路3段301巷121號,25.1201819,121.4658426,555527041
自行車竊盜,1060604,13~15,華聲里光復南路211 ~ 240號,大安區,大安區華聲里光復南路211號,25.0469704,121.5579225,553926964
自行車竊盜,1060605,13~15,成功路2段301 ~ 330號,內湖區,內湖區成功路2段301號,25.0670283,121.5905759,554327012
自行車竊盜,1060605,22~24,永吉里松隆路松山路口旁廣場,信義區,信義區永吉里松隆路松山路口旁廣場,25.04814,121.578869,553926971
自行車竊盜,1060607,13~15,龍生里建國南路2段211 ~ 240號,大安區,大安區龍生里建國南路2段211號,25.0333031,121.5358442,553626925
自行車竊盜,1060608,19~21,群賢里復興南路2段捷運科技大樓站外人行道,大安區,大安區群賢里復興南路2段捷運科技大樓站外人行道,25.026225699999998,121.543466,553426907
自行車竊盜,1060609,10~12,中央里中央北路1段61 ~ 90號,北投區,北投區中央里中央北路1段61號,25.134206699999996,121.50040959999998,555827050
自行車竊盜,1060610,10~12,景興街201巷12弄1 ~ 30號,文山區,文山區景興街201巷12弄1號,24.9917119,121.54404469999999,552626791
自行車竊盜,1060610,13~15,中央里中央南路1段91 ~ 120號,北投區,北投區中央里中央南路1段91號,25.1330116,121.5016154,555827051
自行車竊盜,1060611,07~09,群賢里四維路228巷211 ~ 240號,大安區,大安區群賢里四維路228巷211號,25.0255266,121.5473258,553426905
自行車竊盜,1060619,07~09,萬有里景興路10巷1 ~ 30號,文山區,文山區萬有里景興路10巷1號,24.99790530000001,121.544344,552826815
自行車竊盜,1060620,07~09,樟文里002鄰忠順街1段26巷26弄1 ~ 30號,文山區,文山區樟文里002鄰忠順街1段26巷26弄1號,24.9847799,121.56208400000001,552526768
自行車竊盜,1060621,04~06,東園街121 ~ 150號,萬華區,萬華區東園街121號,25.0251135,121.4969943,553426893
自行車竊盜,1060622,07~09,舊莊里舊莊街1段290巷31 ~ 60號,南港區,南港區舊莊里舊莊街1段290巷31號,25.0370911,121.62401709999999,553626954
自行車竊盜,1060623,01~03,大同里光明路1 ~ 30號,北投區,北投區大同里光明路1號,25.131841,121.49863300000001,555727050
自行車竊盜,1060623,13~15,德安里敦化南路1段331 ~ 360號,大安區,大安區德安里敦化南路1段331號,25.0330358,121.54921809999999,553626927
自行車竊盜,1060624,10~12,四育里虎林街30巷1 ~ 30號,信義區,信義區四育里虎林街30巷1號,25.047818,121.576067,553926970
自行車竊盜,1060624,10~12,五常里永吉路225巷32弄1 ~ 30號,信義區,信義區五常里永吉路225巷32弄1號,25.046961800000002,121.57424640000002,553926967
自行車竊盜,1060625,01~03,群賢里和平東路3段1 ~ 30號,大安區,大安區群賢里和平東路3段1號,25.0249305,121.54679840000001,553426904
自行車竊盜,1060625,10~12,福興里自強街1 ~ 30號,北投區,北投區福興里自強街1號,25.110079199999998,121.5127828,555327046
自行車竊盜,1060625,10~12,八仙里承德路7段361 ~ 390號,北投區,北投區八仙里承德路7段361號,25.118019699999998,121.50324450000001,555427048
自行車竊盜,1060625,10~12,安東街16巷1 ~ 30號,中山區,中山區安東街16巷1號,25.04550960000001,121.5420989,553826957
自行車竊盜,1060625,16~18,大同里光明路1 ~ 30號,北投區,北投區大同里光明路1號,25.131841,121.49863300000001,555727050
自行車竊盜,1060625,16~18,寧夏路91 ~ 120號,大同區,大同區寧夏路91號,25.0594258,121.5150007,554126981
自行車竊盜,1060625,19~21,新生北路1段31 ~ 60號,中山區,中山區新生北路1段31號,25.0472733,121.5310045,553926958
自行車竊盜,1060627,13~15,南京東路5段251巷46弄1 ~ 30號,松山區,松山區南京東路5段251巷46弄1號,25.0533012,121.56468980000001,554026979
自行車竊盜,1060629,01~03,朝陽里重慶北路2段16巷1 ~ 30號,大同區,大同區朝陽里重慶北路2段16巷1號,25.054576,121.51408799999999,554026971
自行車竊盜,1060629,01~03,蘭興里文林路661巷39弄1 ~ 30號,士林區,士林區蘭興里文林路661巷39弄1號,25.1002368,121.52147790000001,555027041
自行車竊盜,1060629,04~06,和平西路3段91 ~ 120號,萬華區,萬華區和平西路3段91號,25.0354466,121.50094750000001,553626923
自行車竊盜,1060629,16~18,莒光路121 ~ 150號,萬華區,萬華區莒光路121號,25.031087799999998,121.5038581,553526911
自行車竊盜,1060629,22~24,新富里富康街1巷16弄,南港區,南港區新富里富康街1巷16弄,25.0536829,121.6179828,554026992
自行車竊盜,1060701,10~12,興業里興隆路2段121 ~ 150號,文山區,文山區興業里興隆路2段121號,24.999805300000002,121.5478442,552826822
自行車竊盜,1060702,01~03,龍圖里瑞安街208巷11弄1 ~ 30號,大安區,大安區龍圖里瑞安街208巷11弄1號,25.0286424,121.5406953,553526913
自行車竊盜,1060702,16~18,尊賢里尊賢街230巷1 ~ 30號,北投區,北投區尊賢里尊賢街230巷1號,25.1164205,121.5083683,555427049
自行車竊盜,1060703,04~06,龍生里和平東路2段151 ~ 180號,大安區,大安區龍生里和平東路2段151號,25.0250007,121.54155729999998,553426903
自行車竊盜,1060704,07~09,幸市里忠孝東2段與新生南1段口(忠孝新生1 ~ 30號,中正區,中正區幸市里忠孝東2段與新生南1段口(忠孝新生1號,25.042025199999998,121.53265590000001,553726946
自行車竊盜,1060704,16~18,幸市里忠孝東路二段、新生南路一段口(忠孝新生1 ~ 30號出口,中正區,中正區幸市里忠孝東路二段、新生南路一段口(忠孝新生1號,25.042025199999998,121.53265590000001,553726946
自行車竊盜,1060705,10~12,學府里羅斯福路4段1 ~ 30號,大安區,大安區學府里羅斯福路4段1號,25.0159129,121.532802,553226873
自行車竊盜,1060705,10~12,建國里捷運西門站1 ~ 30號出口,中正區,中正區建國里捷運西門站1號,25.0419242,121.5080936,553726941
自行車竊盜,1060705,19~21,萬祥里羅斯福路5段269巷口,文山區,文山區萬祥里羅斯福路5段269巷口,25.001201000000002,121.53949899999999,552826825
自行車竊盜,1060707,16~18,環河南路2段148巷1 ~ 30號,萬華區,萬華區環河南路2段148巷1號,25.035970300000002,121.494576,553626922
自行車竊盜,1060708,10~12,敦化北路222巷,松山區,松山區敦化北路222巷,25.0594312,121.5479162,554126988
自行車竊盜,1060708,10~12,松江路301 ~ 330號,中山區,中山區松江路301號,25.0611915,121.5334002,554226988
自行車竊盜,1060708,19~21,開封街2段61 ~ 90號,萬華區,萬華區開封街2段61號,25.046541199999997,121.506808,553826951
自行車竊盜,1060710,07~09,福德里中正路391 ~ 420號,士林區,士林區福德里中正路391號,25.094047,121.52143500000001,554927035
自行車竊盜,1060710,13~15,民權里民權西路121 ~ 150號,大同區,大同區民權里民權西路121號,25.0631052,121.51746100000001,554226989
自行車竊盜,1060712,10~12,龍坡里溫州街18巷1 ~ 30號,大安區,大安區龍坡里溫州街18巷1號,25.024784,121.533217,553426900
自行車竊盜,1060712,10~12,景行里景興路181 ~ 210號,文山區,文山區景行里景興路181號,24.9927645,121.54443290000002,552726795
自行車竊盜,1060715,01~03,榮華里明德路208巷1 ~ 30號,北投區,北投區榮華里明德路208巷1號,25.1129847,121.5225841,555327050
自行車竊盜,1060715,13~15,合江街170巷1 ~ 30號,中山區,中山區合江街170巷1號,25.0607734,121.5389304,554226989
自行車竊盜,1060716,13~15,東門里信義路1段1 ~ 30號,中正區,中正區東門里信義路1段1號,25.0382225,121.5193082,553726934
自行車竊盜,1060718,04~06,南港公園,南港區,南港區南港公園,25.0457002,121.59213170000001,553826968
自行車竊盜,1060718,07~09,富台里忠孝東路5段423巷4弄1 ~ 30號,信義區,信義區富台里忠孝東路5段423巷4弄1號,25.041474899999997,121.57548700000001,553726954
自行車竊盜,1060718,10~12,三愛里連雲街61 ~ 90號,中正區,中正區三愛里連雲街61號,25.034817,121.5303324,553626927
自行車竊盜,1060719,19~21,裕民里懷德街55巷1 ~ 30號,北投區,北投區裕民里懷德街55巷1號,25.112930600000002,121.51925449999999,555327049
自行車竊盜,1060721,07~09,興邦里3鄰興隆路2段151 ~ 180號,文山區,文山區興邦里3鄰興隆路2段151號,25.0013345,121.5498781,552826828
自行車竊盜,1060722,07~09,延壽街391 ~ 420號,松山區,松山區延壽街391號,25.05663860000001,121.5575243,554126985
自行車竊盜,1060722,16~18,民生東路5段36巷4弄1 ~ 30號,松山區,松山區民生東路5段36巷4弄1號,25.057800600000004,121.55718700000001,554126987
自行車竊盜,1060724,04~06,重慶北路2段涼州街,大同區,大同區重慶北路2段涼州街,25.0608288,121.51561799999999,554226984
自行車竊盜,1060725,10~12,五全里永吉路278巷37弄1 ~ 30號,信義區,信義區五全里永吉路278巷37弄1號,25.044243899999998,121.5742544,553826961
自行車竊盜,1060725,10~12,龍安里金華街,大安區,大安區龍安里金華街,25.0301443,121.5320795,553526915
自行車竊盜,1060725,16~18,德安里四維路31 ~ 60號,大安區,大安區德安里四維路31號,25.035322,121.5482753,553626933
自行車竊盜,1060726,07~09,永明里石牌路1段181 ~ 210號,北投區,北投區永明里石牌路1段181號,25.1170384,121.51650649999999,555427051
自行車竊盜,1060728,01~03,明義里003鄰木柵路2段91 ~ 120號,文山區,文山區明義里003鄰木柵路2段91號,24.988535,121.56414709999999,552626784
自行車竊盜,1060728,22~24,和德里西園路2段320巷31 ~ 60號,萬華區,萬華區和德里西園路2段320巷31號,25.026044,121.4923983,553426895
自行車竊盜,1060730,07~09,四育里虎林街55巷1 ~ 30號,信義區,信義區四育里虎林街55巷1號,25.047547899999998,121.577271,553926969
自行車竊盜,1060801,10~12,西園路2段320巷36弄1 ~ 30號,萬華區,萬華區西園路2段320巷36弄1號,25.0277204,121.49439369999999,553426900
自行車竊盜,1060802,04~06,仁福里福德街361 ~ 390號,南港區,南港區仁福里福德街361號,25.0401687,121.589875,553726954
自行車竊盜,1060802,19~21,龍生里瑞安街244巷31 ~ 60號,大安區,大安區龍生里瑞安街244巷31號,25.027569,121.53931940000001,553426909
自行車竊盜,1060803,16~18,景仁里羅斯福路6段151 ~ 180號,文山區,文山區景仁里羅斯福路6段151號,24.9974454,121.5409933,552826812
自行車竊盜,1060803,19~21,德行里福華路128巷1 ~ 30號,士林區,士林區德行里福華路128巷1號,25.102978399999998,121.523315,555127043
自行車竊盜,1060805,16~18,南福里羅斯福路2段61 ~ 90號,中正區,中正區南福里羅斯福路2段61號,25.0235023,121.5248336,553326895
自行車竊盜,1060808,01~03,秀山里中和街502巷14弄1 ~ 30號,北投區,北投區秀山里中和街502巷14弄1號,25.147440600000003,121.49452600000001,556127046
自行車竊盜,1060808,10~12,民權東路3段106巷3弄,松山區,松山區民權東路3段106巷3弄,25.061788,121.545028,554226992
自行車竊盜,1060809,16~18,建功里延平北路1段31 ~ 60號,大同區,大同區建功里延平北路1段31號,25.05350450000001,121.5118997,554026968
自行車竊盜,1060810,19~21,康寧路3段16巷口(葫洲捷運站出口處),內湖區,內湖區康寧路3段16巷口(葫洲捷運站出口處),25.072798499999998,121.6071132,554427025
自行車竊盜,1060811,07~09,住安里信義路4段74巷,大安區,大安區住安里信義路4段74巷,25.0330759,121.5464175,553626926
自行車竊盜,1060811,07~09,東明里興華路91 ~ 120號,南港區,南港區東明里興華路91號,25.053547299999998,121.60168940000001,554026988
自行車竊盜,1060811,10~12,木柵里010鄰木柵路3段1 ~ 30號,文山區,文山區木柵里010鄰木柵路3段1號,24.9895784,121.5701352,552626789
自行車竊盜,1060811,10~12,忠孝東路5段391 ~ 420號,信義區,信義區忠孝東路5段391號,25.0409273,121.5753577,553726953
自行車竊盜,1060811,13~15,清江里三合街2段481 ~ 510號,北投區,北投區清江里三合街2段481號,25.126279399999998,121.5013501,555627050
自行車竊盜,1060812,16~18,青年路178巷1 ~ 30號,萬華區,萬華區青年路178巷1號,25.0207218,121.5027627,553326881
自行車竊盜,1060812,22~24,南港里市民大道8段361 ~ 390號,南港區,南港區南港里市民大道8段361號,25.053647199999997,121.60797690000001,554026990
自行車竊盜,1060813,10~12,內湖捷運站1 ~ 30號出口,內湖區,內湖區內湖捷運站1號,25.0829158,121.5666872,554727032
自行車竊盜,1060814,07~09,試院里005鄰和興路52巷7弄1 ~ 30號,文山區,文山區試院里005鄰和興路52巷7弄1號,24.9847134,121.54776070000001,552526765
自行車竊盜,1060815,04~06,黎忠里和平東路3段361 ~ 390號,信義區,信義區黎忠里和平東路3段361號,25.0203424,121.55708659999999,553326892
自行車竊盜,1060815,16~18,建國里貴陽街1段(司法院旁人行道),中正區,中正區建國里貴陽街1段(司法院旁人行道),25.038795899999997,121.5124131,553726934
自行車竊盜,1060816,19~21,西園路2段320巷61 ~ 90號,萬華區,萬華區西園路2段320巷61號,25.026044,121.4923983,553426895
自行車竊盜,1060817,07~09,忠孝東路5段451 ~ 480號,信義區,信義區忠孝東路5段451號,25.0411038,121.5762524,553726954
自行車竊盜,1060817,10~12,龍圖里信義路3段91 ~ 120號,大安區,大安區龍圖里信義路3段91號,25.033877,121.533515,553626926
自行車竊盜,1060818,22~24,正聲里仁愛路4段421 ~ 450號,大安區,大安區正聲里仁愛路4段421號,25.0373851,121.5552122,553626940
自行車竊盜,1060820,07~09,義安里安和路2段74巷1 ~ 30號,大安區,大安區義安里安和路2段74巷1號,25.0328134,121.55227260000001,553526927
自行車竊盜,1060820,16~18,福住里永康街37巷1 ~ 30號,大安區,大安區福住里永康街37巷1號,25.030839999999998,121.529927,553526917
自行車竊盜,1060821,16~18,學府里羅斯福路4段1 ~ 30號,大安區,大安區學府里羅斯福路4段1號,25.0159129,121.532802,553226873
自行車竊盜,1060822,13~15,南門里延平南路151 ~ 180號,中正區,中正區南門里延平南路151號,25.0355509,121.5078987,553626924
自行車竊盜,1060823,07~09,華興里026鄰木柵路1段光輝路口,文山區,文山區華興里026鄰木柵路1段光輝路口,24.9883426,121.56477209999998,552626783
自行車竊盜,1060823,10~12,永明里石牌路2段91 ~ 120號,北投區,北投區永明里石牌路2段91號,25.1172557,121.51630759999999,555427051
自行車竊盜,1060824,22~24,敦化北路1 ~ 30號,松山區,松山區敦化北路1號,25.048607,121.55023100000001,553926966
自行車竊盜,1060827,01~03,龍門里大安森林公園捷運站1 ~ 30號,大安區,大安區龍門里大安森林公園捷運站1號,25.033534,121.534869,553626925
自行車竊盜,1060828,01~03,行善路31 ~ 60號,內湖區,內湖區行善路31號,25.056554300000002,121.5759473,554126989
自行車竊盜,1060828,19~21,行善路25巷40弄1 ~ 30號,內湖區,內湖區行善路25巷40弄1號,25.0565457,121.5776645,554126989
自行車竊盜,1060830,07~09,大道里大道路121 ~ 150號,信義區,信義區大道里大道路121號,25.0392711,121.58333909999999,553726951
自行車竊盜,1060830,10~12,福住里新生南路2段31 ~ 60號,大安區,大安區福住里新生南路2段31號,25.03331,121.532393,553626924
自行車竊盜,1060831,22~24,福興里致遠一路2段121 ~ 150號,北投區,北投區福興里致遠一路2段121號,25.1134284,121.51248909999998,555327048
自行車竊盜,1060901,16~18,永功里詔安街57巷1 ~ 30號,中正區,中正區永功里詔安街57巷1號,25.02578380000001,121.5113844,553426898
自行車竊盜,1060901,22~24,試院里030鄰木柵路1段76巷內,文山區,文山區試院里030鄰木柵路1段76巷內,24.9866395,121.5465613,552526772
自行車竊盜,1060903,01~03,和安里信義路3段147巷15弄1 ~ 30號,大安區,大安區和安里信義路3段147巷15弄1號,25.035138500000002,121.5421112,553626931
自行車竊盜,1060903,10~12,興雅里忠孝東路5段31巷17弄1 ~ 30號,信義區,信義區興雅里忠孝東路5段31巷17弄1號,25.041044,121.57911100000001,553726954
自行車竊盜,1060903,16~18,復興北路427巷1 ~ 30號,松山區,松山區復興北路427巷1號,25.063450500000002,121.5446756,554226995
自行車竊盜,1060904,07~09,玉成里南港路3段149巷1 ~ 30號,南港區,南港區玉成里南港路3段149巷1號,25.0523037,121.58433470000001,554026982
自行車竊盜,1060906,07~09,萬祥里羅斯福路5段269巷1 ~ 30號,文山區,文山區萬祥里羅斯福路5段269巷1號,25.001201000000002,121.53949899999999,552826825
自行車竊盜,1060906,16~18,景美里羅斯福路6段271 ~ 300號,文山區,文山區景美里羅斯福路6段271號,24.994798899999996,121.54140500000001,552726802
自行車竊盜,1060907,04~06,頂東里羅斯福路2段151 ~ 180號,中正區,中正區頂東里羅斯福路2段151號,25.0235023,121.5248336,553326895
自行車竊盜,1060907,13~15,大橋頭捷運站1 ~ 30號出口,大同區,大同區大橋頭捷運站1號,25.063198999999997,121.512801,554226988
自行車竊盜,1060908,10~12,新營里寧波東街24巷1 ~ 30號,中正區,中正區新營里寧波東街24巷1號,25.0330717,121.52043940000001,553626921
自行車竊盜,1060909,01~03,板溪里羅斯福路2段與和平西路1段西南角,中正區,中正區板溪里羅斯福路2段與和平西路1段西南角,25.0235023,121.5248336,553326895
自行車竊盜,1060911,10~12,水源里羅斯福路4段52巷1 ~ 30號,中正區,中正區水源里羅斯福路4段52巷1號,25.0147431,121.53340619999999,553126870
自行車竊盜,1060913,04~06,三重里經貿二路1 ~ 30號,南港區,南港區三重里經貿二路1號,25.0560908,121.61758999999999,554126997
自行車竊盜,1060914,13~15,玉泉里塔城街1 ~ 30號,大同區,大同區玉泉里塔城街1號,25.0486372,121.51025179999999,553926957
自行車竊盜,1060915,01~03,學府里羅斯福路4段1 ~ 30號,大安區,大安區學府里羅斯福路4段1號,25.0159129,121.532802,553226873
自行車竊盜,1060915,07~09,幸福里忠孝東路1段,中正區,中正區幸福里忠孝東路1段,25.0447827,121.52315540000001,553826951
自行車竊盜,1060917,01~03,水源里羅斯福路4段31 ~ 60號前人行道(台北捷運公館站4號出口,中正區,中正區水源里羅斯福路4段31號,25.017584,121.531774,553226878
自行車竊盜,1060917,01~03,古風里雲和街31 ~ 60號,大安區,大安區古風里雲和街31號,25.02385,121.527275,553326896
自行車竊盜,1060917,10~12,景華里羅斯福路6段301 ~ 330號,文山區,文山區景華里羅斯福路6段301號,24.9946742,121.54152659999998,552726802
自行車竊盜,1060917,13~15,長春里松信路151 ~ 180號,信義區,信義區長春里松信路151號,25.043323,121.572125,553826958
自行車竊盜,1060917,13~15,松江路361 ~ 390號,中山區,中山區松江路361號,25.0636359,121.53354499999999,554226993
自行車竊盜,1060919,04~06,三張里莊敬路325巷31 ~ 60號,信義區,信義區三張里莊敬路325巷31號,25.028744800000002,121.5643248,553526918
自行車竊盜,1060919,07~09,長春里松山路211 ~ 240號,信義區,信義區長春里松山路211號,25.045063,121.577972,553826964
自行車竊盜,1060920,07~09,東華里東華街2段301 ~ 330號,北投區,北投區東華里東華街2段301號,25.1208763,121.50621940000002,555527050
自行車竊盜,1060920,10~12,林口街24巷31 ~ 60號,信義區,信義區林口街24巷31號,25.0379367,121.58045590000002,553726947
自行車竊盜,1060920,19~21,東門里仁愛路1段1 ~ 30號,中正區,中正區東門里仁愛路1段1號,25.039410800000002,121.51945819999999,553726937
自行車竊盜,1060922,07~09,四育里松隆路151 ~ 180號,信義區,信義區四育里松隆路151號,25.0467046,121.5719123,553926966
自行車竊盜,1060922,13~15,鄭州路143巷,大同區,大同區鄭州路143巷,25.0510401,121.50987409999999,553926962
自行車竊盜,1060923,19~21,吉利里石牌路1段39巷131弄1 ~ 30號,北投區,北投區吉利里石牌路1段39巷131弄1號,25.1180277,121.50902250000001,555427049
自行車竊盜,1060924,01~03,東門里信義路1段1 ~ 30號,中正區,中正區東門里信義路1段1號,25.0382225,121.5193082,553726934
自行車竊盜,1060925,16~18,萬大路449巷10弄1 ~ 30號,萬華區,萬華區萬大路449巷10弄1號,25.0204772,121.49869050000001,553326880
自行車竊盜,1060929,16~18,景行里景美街,文山區,文山區景行里景美街,24.9907818,121.54175520000001,552626787
自行車竊盜,1060929,22~24,龍生里建國南路2段181 ~ 210號,大安區,大安區龍生里建國南路2段181號,25.0333031,121.5358442,553626925
自行車竊盜,1060930,16~18,錦泰里金華街48巷1 ~ 30號,大安區,大安區錦泰里金華街48巷1號,25.0304711,121.5232017,553526914
自行車竊盜,1061002,13~15,板溪里羅斯福路2段91 ~ 120號,中正區,中正區板溪里羅斯福路2段91號,25.0235023,121.5248336,553326895
自行車竊盜,1061002,22~24,文林里文林北路241 ~ 270號,北投區,北投區文林里文林北路241號,25.1088476,121.5129882,555227045
自行車竊盜,1061004,19~21,西園路2段52巷1 ~ 30號,萬華區,萬華區西園路2段52巷1號,25.0318402,121.49679809999999,553526912
自行車竊盜,1061006,07~09,興雅里松高路1 ~ 30號,信義區,信義區興雅里松高路1號,25.039633300000002,121.5642112,553726947
自行車竊盜,1061006,16~18,復興北路380巷8弄內,中山區,中山區復興北路380巷8弄內,25.0610172,121.54347140000002,554226990
自行車竊盜,1061007,10~12,林興里羅斯福路3段121 ~ 150號,中正區,中正區林興里羅斯福路3段121號,25.0221362,121.5269189,553326891
自行車竊盜,1061010,07~09,樟腳里010鄰木新路3段91 ~ 120號,文山區,文山區樟腳里010鄰木新路3段91號,24.9820686,121.5630263,552426758
自行車竊盜,1061010,19~21,德安里四維路66巷,大安區,大安區德安里四維路66巷,25.034721899999997,121.5476107,553626931
自行車竊盜,1061011,13~15,市民大道6段松山火車站北側人行道,松山區,松山區市民大道6段松山火車站北側人行道,25.0495717,121.5742058,553926973
自行車竊盜,1061011,19~21,黎明里中山南路2巷7~11旁停車場,中正區,中正區黎明里中山南路2巷7號,25.045397899999998,121.51781399999999,553826951
自行車竊盜,1061012,01~03,光明里信義路2段86巷1 ~ 30號,大安區,大安區光明里信義路2段86巷1號,25.033912899999997,121.525885,553626924
自行車竊盜,1061013,22~24,龍興里三元街151 ~ 180號,中正區,中正區龍興里三元街151號,25.0280819,121.5116487,553426905
自行車竊盜,1061015,10~12,寶清街61 ~ 90號,松山區,松山區寶清街61號,25.0514479,121.5683415,554026976
自行車竊盜,1061015,16~18,奇岩捷運站旁,北投區,北投區奇岩捷運站旁,25.1268157,121.50070890000002,555627050
自行車竊盜,1061016,04~06,建國北路3段31 ~ 60號,中山區,中山區建國北路3段31號,25.0640138,121.53681340000001,554226995
自行車竊盜,1061017,10~12,義村里忠孝東路3段248巷1 ~ 30號,大安區,大安區義村里忠孝東路3段248巷1號,25.041181899999998,121.54111529999999,553726946
自行車竊盜,1061018,16~18,四育里市民大道6段虎林街口,信義區,信義區四育里市民大道6段虎林街口,25.0497215,121.5715994,553926973
自行車竊盜,1061019,10~12,八德路4段631 ~ 660號,松山區,松山區八德路4段631號,25.0501957,121.57500379999999,553926975
自行車竊盜,1061019,10~12,仁慈里大安路1段151 ~ 180號,大安區,大安區仁慈里大安路1段151號,25.033676,121.54586770000002,553626928
自行車竊盜,1061022,22~24,文北里臨沂街31 ~ 60號,中正區,中正區文北里臨沂街31號,25.039911899999996,121.5298923,553726940
自行車竊盜,1061023,04~06,住安里大安路2段53巷,大安區,大安區住安里大安路2段53巷,25.0312747,121.5463659,553526921
自行車竊盜,1061023,22~24,鴻福里玉成街201巷8弄1 ~ 30號,南港區,南港區鴻福里玉成街201巷8弄1號,25.044694,121.5858158,553826965
自行車竊盜,1061025,01~03,國慶里民族西路211 ~ 240號,大同區,大同區國慶里民族西路211號,25.068777100000002,121.5142311,554326998
自行車竊盜,1061027,22~24,榮光里西安街1段211 ~ 240號,北投區,北投區榮光里西安街1段211號,25.11457780000001,121.5149997,555427049
自行車竊盜,1061028,13~15,錦西街1 ~ 30號,中山區,中山區錦西街1號,25.060371399999998,121.5225367,554226984
自行車竊盜,1061030,10~12,景華里三福街1 ~ 30號,文山區,文山區景華里三福街1號,24.996098999999997,121.54146999999999,552726807
自行車竊盜,1061031,10~12,三張里吳興街281巷31 ~ 60號,信義區,信義區三張里吳興街281巷31號,25.0265332,121.5650739,553426912
自行車竊盜,1061102,07~09,新仁里忠孝東路4段553巷6弄1 ~ 30號,信義區,信義區新仁里忠孝東路4段553巷6弄1號,25.0413492,121.5650664,553726952
自行車竊盜,1061103,07~09,廣州街31 ~ 60號,萬華區,萬華區廣州街31號,25.036344,121.505871,553626926
自行車竊盜,1061103,19~21,通安里臨江街118巷3弄1 ~ 30號,大安區,大安區通安里臨江街118巷3弄1號,25.0300342,121.5539253,553526920
自行車竊盜,1061106,19~21,葫蘆里葫蘆街163巷,士林區,士林區葫蘆里葫蘆街163巷,25.0839183,121.5088471,554727020
自行車竊盜,1061107,04~06,聖山里忠誠路1段151 ~ 180號,士林區,士林區聖山里忠誠路1段151號,25.108599899999998,121.53058159999999,555227049
自行車竊盜,1061107,10~12,南京東路3段151 ~ 180號,中山區,中山區南京東路3段151號,25.052223899999998,121.54167450000001,554026972
自行車竊盜,1061108,19~21,錦州街211 ~ 240號,中山區,中山區錦州街211號,25.0604462,121.5319989,554226987
自行車竊盜,1061109,13~15,梅花里市民大道3段1 ~ 30號,中正區,中正區梅花里市民大道3段1號,25.045098,121.5613131,553826960
自行車竊盜,1061109,16~18,成功路4段167巷（內湖捷運站1 ~ 30號出口,內湖區,內湖區成功路4段167巷（內湖捷運站1號,25.083660000000002,121.594407,554727039
自行車竊盜,1061110,10~12,復興北路430巷1 ~ 30號,中山區,中山區復興北路430巷1號,25.0634822,121.5430996,554226995
自行車竊盜,1061112,16~18,常德街公園路,中正區,中正區常德街公園路,25.0412224,121.51605929999998,553726941
自行車竊盜,1061116,16~18,八德路3段151 ~ 180號,松山區,松山區八德路3段151號,25.0481729,121.554998,553926966
自行車竊盜,1061118,16~18,水源里羅斯福路4段121 ~ 150號,中正區,中正區水源里羅斯福路4段121號,25.017584,121.531774,553226878
自行車竊盜,1061119,16~18,龍門里大安森林公園捷運站1 ~ 30號出口,大安區,大安區龍門里大安森林公園捷運站1號,25.033534,121.534869,553626925
自行車竊盜,1061121,13~15,智仁里中和街493巷1 ~ 30號,北投區,北投區智仁里中和街493巷1號,25.144354999999997,121.494376,556027047
自行車竊盜,1061121,22~24,興豐里興隆路2段95巷,文山區,文山區興豐里興隆路2段95巷,24.9998048,121.5468452,552826822
自行車竊盜,1061122,01~03,住安里信義路4段1 ~ 30號,大安區,大安區住安里信義路4段1號,25.0335555,121.5442987,553626927
自行車竊盜,1061123,04~06,西新里向陽路1 ~ 30號,南港區,南港區西新里向陽路1號,25.055759,121.59304240000002,554126991
自行車竊盜,1061124,19~21,大同里光明路1 ~ 30號,北投區,北投區大同里光明路1號,25.131841,121.49863300000001,555727050
自行車竊盜,1061126,07~09,長安西路52巷,大同區,大同區長安西路52巷,25.049938100000002,121.51990900000001,553926962
自行車竊盜,1061127,13~15,永明里立農街2段與義理街口,北投區,北投區永明里立農街2段與義理街口,25.123002,121.513702,555527052
自行車竊盜,1061127,19~21,康定路與桂林路口,萬華區,萬華區康定路與桂林路口,25.040554,121.50244099999999,553726936
自行車竊盜,1061129,07~09,龍門里新生南路2段1 ~ 30號,大安區,大安區龍門里新生南路2段1號,25.03331,121.532393,553626924
自行車竊盜,1061202,07~09,龍安里新生南路2段61 ~ 90號,大安區,大安區龍安里新生南路2段61號,25.0280034,121.534451,553426910
自行車竊盜,1061202,19~21,幸市里濟南路2段家樂福便利購旁的防火巷,中正區,中正區幸市里濟南路2段家樂福便利購旁的防火巷,25.0403415,121.5310342,553726942
自行車竊盜,1061203,13~15,龍門里新生南路與金華街口大安森林公園1 ~ 30號出口,大安區,大安區龍門里新生南路與金華街口大安森林公園1號,25.032435,121.5349054,553526922
自行車竊盜,1061203,16~18,興邦里興隆路2段151 ~ 180號,文山區,文山區興邦里興隆路2段151號,25.000488,121.549683,552826825
自行車竊盜,1061203,19~21,景行里景文街91 ~ 120號,文山區,文山區景行里景文街91號,24.991032999999998,121.54139199999999,552626788
自行車竊盜,1061205,04~06,民族西路76巷39弄,大同區,大同區民族西路76巷39弄,25.067475199999997,121.5177172,554326997
自行車竊盜,1061206,04~06,永吉里松隆路331 ~ 360號,信義區,信義區永吉里松隆路331號,25.048531,121.57950500000001,553926972
自行車竊盜,1061206,13~15,社子里16鄰延平北路6段91 ~ 120號,士林區,士林區社子里16鄰延平北路6段91號,25.08707260000001,121.50930559999999,554727024
自行車竊盜,1061207,10~12,建國里重慶南路1段121 ~ 150號,中正區,中正區建國里重慶南路1段121號,25.041934,121.51330700000001,553726942
自行車竊盜,1061210,16~18,水源里汀州路3段104巷（自來水公園）,中正區,中正區水源里汀州路3段104巷（自來水公園）,25.014148600000002,121.53309490000001,553126868
自行車竊盜,1061210,19~21,德行里福華路164巷1 ~ 30號,士林區,士林區德行里福華路164巷1號,25.104370199999998,121.5226295,555127044
自行車竊盜,1061211,01~03,興得里興隆路3段36巷16弄1 ~ 30號,文山區,文山區興得里興隆路3段36巷16弄1號,24.9996504,121.555085,552826823
自行車竊盜,1061211,10~12,石牌里15鄰西安街1段151 ~ 180號,北投區,北投區石牌里15鄰西安街1段151號,25.112707,121.5163313,555327048
自行車竊盜,1061213,01~03,成都路61 ~ 90號,萬華區,萬華區成都路61號,25.0429189,121.50583629999998,553826943
自行車竊盜,1061215,16~18,龍圖里13鄰瑞安街154巷31 ~ 60號,大安區,大安區龍圖里13鄰瑞安街154巷31號,25.0295646,121.5415341,553526916
自行車竊盜,1061215,16~18,寧夏路一帶,大同區,大同區寧夏路一帶,25.058140899999998,121.51521409999998,554126978
自行車竊盜,1061215,16~18,富台里忠孝東路5段271 ~ 300號,信義區,信義區富台里忠孝東路5段271號,25.041176800000002,121.57120929999999,553726953
自行車竊盜,1061215,22~24,新生南路3段61 ~ 90號,大安區,大安區新生南路3段61號,25.025411,121.534527,553426902
自行車竊盜,1061216,04~06,環河北路1段271 ~ 300號,大同區,大同區環河北路1段271號,25.058436,121.50861,554126978
自行車竊盜,1061216,10~12,承德里18鄰基河路1 ~ 30號,士林區,士林區承德里18鄰基河路1號,25.0863232,121.52504209999998,554727027
自行車竊盜,1061216,13~15,福住里信義路與新生南路口,大安區,大安區福住里信義路與新生南路口,25.03331,121.532393,553626924
自行車竊盜,1061216,16~18,撫遠街389巷1 ~ 30號,松山區,松山區撫遠街389巷1號,25.065049300000002,121.56592520000001,554327003
自行車竊盜,1061217,07~09,福德里福德路1 ~ 30號,士林區,士林區福德里福德路1號,25.093535,121.52623,554927035
自行車竊盜,1061223,07~09,群賢里復興南路2段151 ~ 180號,大安區,大安區群賢里復興南路2段151號,25.0282862,121.54375729999998,553426913
自行車竊盜,1061223,13~15,龍安里10鄰青田街5巷1 ~ 30號,大安區,大安區龍安里10鄰青田街5巷1號,25.028665,121.531945,553526911
自行車竊盜,1061225,19~21,興得里9鄰興隆路3段31 ~ 60號,文山區,文山區興得里9鄰興隆路3段31號,25.0006348,121.55557730000001,552826827
自行車竊盜,1061226,22~24,龍圖里信義路3段91 ~ 120號,大安區,大安區龍圖里信義路3段91號,25.033877,121.533515,553626926
自行車竊盜,1061227,07~09,長春里松山路271 ~ 300號,信義區,信義區長春里松山路271號,25.043507,121.57802209999998,553826960
自行車竊盜,1070101,01~03,廣居里忠孝東路5段372巷27弄1 ~ 30號,信義區,信義區廣居里忠孝東路5段372巷27弄1號,25.039768,121.57413400000002,553726950
自行車竊盜,1070101,07~09,南京西路25巷1 ~ 30號,大同區,大同區南京西路25巷1號,25.0542025,121.5203301,554026971
自行車竊盜,1070102,22~24,木柵里030鄰木柵路3段91 ~ 120號,文山區,文山區木柵里030鄰木柵路3段91號,24.988858,121.56778600000001,552626786
自行車竊盜,1070104,01~03,赤峰街1 ~ 30號,大同區,大同區赤峰街1號,25.053485000000002,121.51918799999999,554026970
自行車竊盜,1070104,13~15,西寧南路1 ~ 30號,萬華區,萬華區西寧南路1號,25.039827499999998,121.5060435,553726935
自行車竊盜,1070104,16~18,康定路361 ~ 390號,萬華區,萬華區康定路361號,25.0331696,121.5005574,553626916
自行車竊盜,1070109,07~09,林泉里泉源路1 ~ 30號,北投區,北投區林泉里泉源路1號,25.143344,121.518621,556027053
自行車竊盜,1070112,04~06,南門里小南門捷運站1 ~ 30號出口,中正區,中正區南門里小南門捷運站1號,25.0366673,121.5091331,553626928
自行車竊盜,1070118,16~18,環山路2段91 ~ 120號,內湖區,內湖區環山路2段91號,25.084583,121.575143,554727036
自行車竊盜,1070118,19~21,網溪里7鄰同安街80巷1 ~ 30號,中正區,中正區網溪里7鄰同安街80巷1號,25.021865,121.51912639999999,553326888
自行車竊盜,1070118,19~21,民權西路245巷31 ~ 60號,大同區,大同區民權西路245巷31號,25.064027399999997,121.5104604,554226989
自行車竊盜,1070120,07~09,八德路3段1 ~ 30號,松山區,松山區八德路3段1號,25.0482522,121.5547285,553926966
自行車竊盜,1070122,07~09,興光里興隆路3段115巷,文山區,文山區興光里興隆路3段115巷,24.9996052,121.55869890000001,552826824
自行車竊盜,1070123,10~12,赤峰街53巷1 ~ 30號,大同區,大同區赤峰街53巷1號,25.056252899999997,121.51976470000001,554126976
自行車竊盜,1070124,01~03,莊敬路421 ~ 450號,信義區,信義區莊敬路421號,25.027329,121.56650800000001,553426915
自行車竊盜,1070128,01~03,港富里內湖路1段737巷41弄1 ~ 30號,內湖區,內湖區港富里內湖路1段737巷41弄1號,25.0800653,121.57841450000001,554627030
自行車竊盜,1070131,19~21,延平北路2段91 ~ 120號,大同區,大同區延平北路2段91號,25.056410800000002,121.51172120000001,554126974
自行車竊盜,1070212,16~18,樟林里016鄰忠順街1段41巷3弄1 ~ 30號,文山區,文山區樟林里016鄰忠順街1段41巷3弄1號,24.9839375,121.558302,552526764
自行車竊盜,1070215,10~12,水源里思源街1 ~ 30號,中正區,中正區水源里思源街1號,25.014372,121.53217120000001,553126868
自行車竊盜,1070219,16~18,龍門里辛亥路2段31 ~ 60號,大安區,大安區龍門里辛亥路2段31號,25.0006459,121.5543294,552826827
自行車竊盜,1070221,01~03,峨嵋街1 ~ 30號,萬華區,萬華區峨嵋街1號,25.043381600000004,121.50813059999999,553826944
自行車竊盜,1070225,19~21,芳和里嘉興街363巷1 ~ 30號,大安區,大安區芳和里嘉興街363巷1號,25.0217182,121.5525778,553326895
自行車竊盜,1070301,02~04,民生東路5段36巷4弄31~60號,松山區,松山區民生東路5段36巷4弄31號,25.058367699999998,121.5569925,554126988
自行車竊盜,1070302,00~02,光武里大安路1段31巷31~60號,大安區,大安區光武里大安路1段31巷31號,25.0447219,121.54610090000001,553826956
自行車竊盜,1070303,08~10,內湖路3段143巷1~30號,內湖區,內湖區內湖路3段143巷1號,25.0870924,121.58973200000001,554727042
自行車竊盜,1070307,06~08,榮光里西安街1段(明德捷運站旁),北投區,北投區榮光里西安街1段(明德捷運站旁),25.114523000000002,121.51555900000001,555427049
自行車竊盜,1070309,00~02,忠孝東路5段481~510號,信義區,信義區忠孝東路5段481號,25.041004,121.577475,553726954
自行車竊盜,1070311,12~14,雙城街10巷1~30號,中山區,中山區雙城街10巷1號,25.0642289,121.5242889,554226992
自行車竊盜,1070312,20~22,永功里和平西路2段70巷17弄31~60號,中正區,中正區永功里和平西路2段70巷17弄31號,25.0341603,121.5046976,553626920
自行車竊盜,1070314,00~02,六藝里永吉路180巷70弄1~30號,信義區,信義區六藝里永吉路180巷70弄1號,25.0429787,121.571322,553826957
自行車竊盜,1070314,14~16,民權東路六段91~120號,內湖區,內湖區民權東路六段91號,25.0693177,121.58814109999999,554427015
自行車竊盜,1070315,00~02,長春里永吉路278巷57弄1~30號,信義區,信義區長春里永吉路278巷57弄1號,25.043445300000002,121.57425549999999,553826959
自行車竊盜,1070315,02~04,秀朗橋下河場旁之腳踏車步道((人權紀念公園)),新店市,新店市秀朗橋下河場旁之腳踏車步道((人權紀念公園)),24.978282,121.5394822,552326737
自行車竊盜,1070318,00~02,忠孝東路6段70巷21弄1~30號,南港區,南港區忠孝東路6段70巷21弄1號,25.045923100000003,121.58436840000002,553826967
自行車竊盜,1070318,02~04,富台里忠孝東路5段(虎林街口),信義區,信義區富台里忠孝東路5段(虎林街口),25.040659299999998,121.57682690000001,553726953
自行車竊盜,1070319,00~02,雅祥里基隆路1段83巷1~30號,信義區,信義區雅祥里基隆路1段83巷1號,25.0500914,121.57001340000001,553926973
自行車竊盜,1070319,02~04,文盛里羅斯福路3段211~240號,中正區,中正區文盛里羅斯福路3段211號,25.0192077,121.5296385,553226883
自行車竊盜,1070319,04~06,長順街99巷1~30號,萬華區,萬華區長順街99巷1號,25.0318916,121.49001609999999,553526911
自行車竊盜,1070319,04~06,長順街99巷1~30號,萬華區,萬華區長順街99巷1號,25.0318916,121.49001609999999,553526911
自行車竊盜,1070319,16~18,裕民里明德路91~120號,北投區,北投區裕民里明德路91號,25.1090387,121.5188432,555227047
自行車竊盜,1070322,00~02,農安街77巷9弄內,中山區,中山區農安街77巷9弄內,25.0662616,121.52858640000001,554326997
自行車竊盜,1070322,20~22,試院里027鄰木柵路1段121~150號,文山區,文山區試院里027鄰木柵路1段121號,24.9886951,121.56439040000001,552626784
自行車竊盜,1070324,00~02,民族西路61~90號,大同區,大同區民族西路61號,25.0686777,121.51881809999999,554326999
自行車竊盜,1070324,06~08,雙和里吳興街284巷1~30號,信義區,信義區雙和里吳興街284巷1號,25.0258389,121.564197,553426910
自行車竊盜,1070329,18~20,雙和里吳興街600巷53弄1~30號,信義區,信義區雙和里吳興街600巷53弄1號,25.0201669,121.57016599999999,553326895
自行車竊盜,1070329,18~20,學府里羅斯福路4段1~30號,大安區,大安區學府里羅斯福路4段1號,25.0159129,121.532802,553226873
自行車竊盜,1070329,22~24,延平北路1段69巷1~30號,大同區,大同區延平北路1段69巷1號,25.0514018,121.5124017,554026964
自行車竊盜,1070402,12~14,富台里忠孝東路5段(永春捷運站5號,信義區,信義區富台里忠孝東路5段(永春捷運站5號,25.040859,121.576292,553726953
自行車竊盜,1070402,16~18,三玉里13鄰忠誠路2段1~30號,士林區,士林區三玉里13鄰忠誠路2段1號,25.108599899999998,121.53058159999999,555227049
自行車竊盜,1070403,00~02,龍門里新生南路2段1~30號,大安區,大安區龍門里新生南路2段1號,25.03331,121.532393,553626924
自行車竊盜,1070403,18~20,成福路91~120號,南港區,南港區成福路91號,25.0428404,121.5870804,553826960
自行車竊盜,1070407,16~18,南門里重慶南路2段與南海路口的天橋下(靠中正第,中正區,中正區南門里重慶南路2段與南海路口的天橋下(靠中正第,25.041520000000002,121.513273,553726941
自行車竊盜,1070408,14~16,民權東路6段296巷31~60號,內湖區,內湖區民權東路6段296巷31號,25.072064,121.60639029999999,554427024
自行車竊盜,1070409,10~12,新生北路2段133巷1~30號,中山區,中山區新生北路2段133巷1號,25.060947199999998,121.5280138,554226987
自行車竊盜,1070409,14~16,敦煌路88巷,大同區,大同區敦煌路88巷,25.075635899999998,121.51717659999998,554527010
自行車竊盜,1070410,02~04,延平北路4段111巷,大同區,大同區延平北路4段111巷,25.0713723,121.51089270000001,554427002
自行車竊盜,1070411,02~04,五全里永吉路278巷47弄1~30號,信義區,信義區五全里永吉路278巷47弄1號,25.0438891,121.57424830000001,553826960
自行車竊盜,1070411,20~22,三張里吳興街281巷31~60號,信義區,信義區三張里吳興街281巷31號,25.0265332,121.5650739,553426912
自行車竊盜,1070413,14~16,南門里廣州街8巷,中正區,中正區南門里廣州街8巷,25.0344332,121.5082511,553626921
自行車竊盜,1070413,18~20,(大橋頭捷運站2號,大同區,大同區(大橋頭捷運站2號,25.0632919,121.51295449999999,554226988
自行車竊盜,1070415,14~16,中山北路2段91~120號,中山區,中山區中山北路2段91號,25.059307999999998,121.52326200000002,554126983
自行車竊盜,1070415,14~16,寧夏路91~120號,大同區,大同區寧夏路91號,25.0594258,121.5150007,554126981
自行車竊盜,1070415,18~20,承德路3段208巷1~30號,大同區,大同區承德路3段208巷1號,25.070554,121.51780900000001,554427002
自行車竊盜,1070416,14~16,民族西路252巷,大同區,大同區民族西路252巷,25.067908399999997,121.51225290000001,554326996
自行車竊盜,1070418,14~16,迪化街2段421~450號,大同區,大同區迪化街2段421號,25.0634673,121.5094294,554226987
自行車竊盜,1070419,16~18,民炤里信義路3段31~60號,大安區,大安區民炤里信義路3段31號,25.033085999999997,121.54136499999998,553626925
自行車竊盜,1070419,20~22,寧夏路31~60號,大同區,大同區寧夏路31號,25.0558329,121.51536740000002,554126974
自行車竊盜,1070421,10~12,港華街1~30號,內湖區,內湖區港華街1號,25.0823766,121.577905,554627033
自行車竊盜,1070422,12~14,康寧路1段64巷1~30號,內湖區,內湖區康寧路1段64巷1號,25.0799012,121.59203600000001,554627033
自行車竊盜,1070424,00~02,萬大路137巷31~60號,萬華區,萬華區萬大路137巷31號,25.0291828,121.50136090000002,553526906
自行車竊盜,1070427,00~02,龍泉里泰順街26巷,大安區,大安區龍泉里泰順街26巷,25.0250046,121.53009229999999,553426900
自行車竊盜,1070428,12~14,康寧路1段151~180號,內湖區,內湖區康寧路1段151號,25.079304,121.59439099999999,554627033
自行車竊盜,1070429,14~16,興隆里忠孝東路5段(逸仙路口),信義區,信義區興隆里忠孝東路5段(逸仙路口),25.041058,121.5619029,553726950
自行車竊盜,1070430,22~24,大龍街61~90號,大同區,大同區大龍街61號,25.065623499999997,121.5160564,554326993
汽車竊盜,1060106,07~09,溫泉里溫泉路121 ~ 150號,北投區,北投區溫泉里溫泉路121號,25.1362898,121.5109145,555827053
汽車竊盜,1060112,19~21,林泉里溫泉路121 ~ 150號,北投區,北投區林泉里溫泉路121號,25.1362898,121.5109145,555827053
汽車竊盜,1060122,01~03,中山北路1段53巷1 ~ 30號,中山區,中山區中山北路1段53巷1號,25.0524875,121.522842,554026968
汽車竊盜,1060122,13~15,榮華里東華街1段22巷2弄1 ~ 30號,北投區,北投區榮華里東華街1段22巷2弄1號,25.108202399999996,121.520701,555227047
汽車竊盜,1060125,04~06,中央里大業路280巷31 ~ 60號,北投區,北投區中央里大業路280巷31號,25.127687899999998,121.49975900000001,555627050
汽車竊盜,1060126,13~15,桂林路,萬華區,萬華區桂林路,25.0384064,121.50093100000001,553726930
汽車竊盜,1060202,01~03,內江街,萬華區,萬華區內江街,25.0416012,121.5035352,553726939
汽車竊盜,1060209,16~18,長春路451 ~ 480號,松山區,松山區長春路451號,25.054622,121.54760729999998,554026978
汽車竊盜,1060218,04~06,承德路承德橋堤外停車場,大同區,大同區承德路承德橋堤外停車場,25.0777125,121.51881359999999,554527013
汽車竊盜,1060223,19~21,民生東路1段23巷,中山區,中山區民生東路1段23巷,25.058647600000004,121.5247959,554126982
汽車竊盜,1060224,10~12,和平西路3段382巷,萬華區,萬華區和平西路3段382巷,25.0350395,121.4914943,553626919
汽車竊盜,1060228,22~24,關渡里知行路181 ~ 210號,北投區,北投區關渡里知行路181號,25.1189182,121.4661301,555427040
汽車竊盜,1060306,07~09,"貴陽街,下閘道口室",萬華區,"萬華區貴陽街,下閘道口室",25.0399855,121.5024804,553726935
汽車竊盜,1060306,16~18,萬大路387巷29弄31 ~ 60號,萬華區,萬華區萬大路387巷29弄31號,25.0221137,121.500148,553326885
汽車竊盜,1060312,01~03,敦化北路331 ~ 360號,松山區,松山區敦化北路331號,25.059274,121.55026299999999,554126988
汽車竊盜,1060314,01~03,大同里中央北路與育仁路口,北投區,北投區大同里中央北路與育仁路口,25.134843300000004,121.49977340000002,555827050
汽車竊盜,1060317,10~12,"環河南路1段,武昌峨眉室",萬華區,"萬華區環河南路1段,武昌峨眉室",25.0448705,121.50156650000001,553826946
汽車竊盜,1060317,16~18,豐年里中央北路2段257巷內,北投區,北投區豐年里中央北路2段257巷內,25.1318594,121.48901529999999,555727048
汽車竊盜,1060322,16~18,大同里北投路1段91巷1 ~ 30號,北投區,北投區大同里北投路1段91巷1號,25.13027300000001,121.499443,555727050
汽車竊盜,1060329,01~03,福林里福林路254巷第1 ~ 30號,士林區,士林區福林里福林路254巷第1號,25.0980242,121.53591270000001,555027042
汽車竊盜,1060403,10~12,龍坡里辛亥路1段121 ~ 150號,大安區,大安區龍坡里辛亥路1段121號,25.021604,121.54363899999998,553326893
汽車竊盜,1060411,13~15,豐年里大業路421 ~ 450號,北投區,北投區豐年里大業路421號,25.1316199,121.49572990000001,555727049
汽車竊盜,1060412,01~03,保安里高速公路橋下1 ~ 30號,大同區,大同區保安里高速公路橋下1號,25.0782893,121.5132176,554627013
汽車竊盜,1060412,10~12,景慶里景福街底278公車總站旁,文山區,文山區景慶里景福街底278公車總站旁,24.9948801,121.53728149999999,552726802
汽車竊盜,1060416,07~09,大佳河濱公園481 ~ 510號,中山區,中山區大佳河濱公園481號,25.07469,121.54110060000001,554527014
汽車竊盜,1060418,10~12,桃源里中央北路3段276巷1 ~ 30號,北投區,北投區桃源里中央北路3段276巷1號,25.1356462,121.4790757,555827045
汽車竊盜,1060503,16~18,永樂里長安西路塔城街,大同區,大同區永樂里長安西路塔城街,25.052023499999997,121.51043370000001,554026965
汽車竊盜,1060505,07~09,東園街121 ~ 150號,萬華區,萬華區東園街121號,25.0251135,121.4969943,553426893
汽車竊盜,1060506,07~09,泉源里登山路31 ~ 60號,北投區,北投區泉源里登山路31號,25.145885999999997,121.512731,556027051
汽車竊盜,1060506,19~21,福安里延平北路7段31 ~ 60號,士林區,士林區福安里延平北路7段31號,25.0945127,121.4969326,554927030
汽車竊盜,1060510,04~06,東華里立農街2段151 ~ 180號,北投區,北投區東華里立農街2段151號,25.1189723,121.51324609999999,555527051
汽車竊盜,1060513,22~24,蘭興里磺溪街241 ~ 270號,士林區,士林區蘭興里磺溪街241號,25.1072996,121.52309809999998,555227047
汽車竊盜,1060528,01~03,永倫里通河西街211 ~ 240號,士林區,士林區永倫里通河西街211號,25.09348360000001,121.5025929,554927030
汽車竊盜,1060531,13~15,芝山里芝玉路91 ~ 120號,士林區,士林區芝山里芝玉路91號,25.1043168,121.5361382,555127047
汽車竊盜,1060603,07~09,福安里延平北路7段1 ~ 30號,士林區,士林區福安里延平北路7段1號,25.0945127,121.4969326,554927030
汽車竊盜,1060606,07~09,湖山里湖山路2段1 ~ 30號,北投區,北投區湖山里湖山路2段1號,25.1519488,121.5491344,556227056
汽車竊盜,1060610,10~12,三犁里松德路307巷口,信義區,信義區三犁里松德路307巷口,25.030894399999998,121.57483119999999,553526927
汽車竊盜,1060610,13~15,環河南路堤外防洪道1 ~ 30號,萬華區,萬華區環河南路堤外防洪道1號,25.03864,121.497206,553726930
汽車竊盜,1060618,04~06,成功路二段193巷內,內湖區,內湖區成功路二段193巷內,25.0665117,121.59130230000001,554327011
汽車竊盜,1060619,07~09,前港里劍潭路55巷18弄1 ~ 30號,士林區,士林區前港里劍潭路55巷18弄1號,25.0843219,121.52146599999999,554727023
汽車竊盜,1060619,07~09,忠孝東路7段124巷17弄31 ~ 60號,南港區,南港區忠孝東路7段124巷17弄31號,25.0507292,121.59987790000001,553926982
汽車竊盜,1060620,16~18,潭美街上,內湖區,內湖區潭美街上,25.0600641,121.5917128,554126999
汽車竊盜,1060627,13~15,名山里至誠路2段51巷,士林區,士林區名山里至誠路2段51巷,25.1013708,121.5283163,555127043
汽車竊盜,1060705,07~09,老師里環河北路2段汙水處理廠旁停車格,大同區,大同區老師里環河北路2段汙水處理廠旁停車格,25.073617499999997,121.5107467,554427005
汽車竊盜,1060710,07~09,光能里承德路2段109巷,大同區,大同區光能里承德路2段109巷,25.056587,121.518376,554126976
汽車竊盜,1060710,19~21,承德路2段121 ~ 150號,大同區,大同區承德路2段121號,25.056938,121.51839199999999,554126977
汽車竊盜,1060717,04~06,康寧路3段190巷31 ~ 60號,內湖區,內湖區康寧路3段190巷31號,25.068414399999998,121.6108037,554327019
汽車竊盜,1060802,22~24,南港里南港路1段271 ~ 300號,南港區,南港區南港里南港路1段271號,25.05450260000001,121.6087612,554026992
汽車竊盜,1060817,01~03,通河西街1段第1 ~ 30號,大同區,大同區通河西街1段第1號,25.078189899999998,121.51645459999999,554527014
汽車竊盜,1060825,07~09,福中里17鄰通河東街1段151 ~ 180號,士林區,士林區福中里17鄰通河東街1段151號,25.0825212,121.5170702,554627020
汽車竊盜,1060831,10~12,富光里延平北路5段1巷旁邊31 ~ 60號,士林區,士林區富光里延平北路5段1巷旁邊31號,25.078885500000002,121.50907099999999,554627013
汽車竊盜,1060902,01~03,峨嵋街61 ~ 90號,萬華區,萬華區峨嵋街61號,25.0436975,121.5063895,553826945
汽車竊盜,1060902,19~21,重陽路203巷,南港區,南港區重陽路203巷,25.0578132,121.60056909999999,554126997
汽車竊盜,1060905,01~03,稻香里稻香路政戰學校圍牆旁,北投區,北投區稻香里稻香路政戰學校圍牆旁,25.1415454,121.4876139,556027046
汽車竊盜,1060911,01~03,蓬萊里昌吉街132巷1 ~ 30號,大同區,大同區蓬萊里昌吉街132巷1號,25.0657418,121.51426140000001,554326993
汽車竊盜,1060911,04~06,文林路587巷口報廢汽車,士林區,士林區文林路587巷口報廢汽車,25.098692800000002,121.51969960000001,555027039
汽車竊盜,1060911,10~12,環河南路2段環南市場乙棟後方,萬華區,萬華區環河南路2段環南市場乙棟後方,25.0291941,121.49047040000002,553526903
汽車竊盜,1060919,04~06,東門里中山南路1 ~ 30號,中正區,中正區東門里中山南路1號,25.0439998,121.5195803,553826948
汽車竊盜,1060925,07~09,研究院路101巷之停車格,南港區,南港區研究院路101巷之停車格,25.0422303,121.61678859999999,553826965
汽車竊盜,1061001,19~21,廣居里忠孝東路5段236巷2弄內,信義區,信義區廣居里忠孝東路5段236巷2弄內,25.039982000000002,121.572258,553726950
汽車竊盜,1061009,22~24,一德里中央北路4段511 ~ 540號,北投區,北投區一德里中央北路4段511號,25.128198899999997,121.46857309999999,555727043
汽車竊盜,1061012,10~12,塔悠路1 ~ 30號,松山區,松山區塔悠路1號,25.0496798,121.57186899999999,553926973
汽車竊盜,1061017,01~03,西藏路125巷1 ~ 30號,萬華區,萬華區西藏路125巷1號,25.0293435,121.5022848,553526906
汽車竊盜,1061023,13~15,新湖一路361 ~ 390號,內湖區,內湖區新湖一路361號,25.06465750000001,121.58459679999999,554227006
汽車竊盜,1061025,16~18,華中橋下第二停車場,萬華區,萬華區華中橋下第二停車場,25.0157034,121.49652920000001,553226864
汽車竊盜,1061025,19~21,華中橋堤防外停車場,萬華區,萬華區華中橋堤防外停車場,25.0157034,121.49652920000001,553226864
汽車竊盜,1061028,07~09,舊莊街1段91 ~ 120號,南港區,南港區舊莊街1段91號,25.0407345,121.61914540000001,553726962
汽車竊盜,1061030,16~18,社子里通河西街2段1 ~ 30號,士林區,士林區社子里通河西街2段1號,25.0923645,121.5091125,554927030
汽車竊盜,1061101,10~12,一德里中央北路4段331 ~ 360號,北投區,北投區一德里中央北路4段331號,25.1305749,121.472618,555727044
汽車竊盜,1061104,01~03,福佳里文林路587巷,士林區,士林區福佳里文林路587巷,25.098692800000002,121.51969960000001,555027039
汽車竊盜,1061104,16~18,大理街160巷20弄糖部公園,萬華區,萬華區大理街160巷20弄糖部公園,25.034383300000002,121.494657,553626918
汽車竊盜,1061108,07~09,民權東路6段120巷口汽車AT~6252,內湖區,內湖區民權東路6段120巷口汽車AT號,25.0689562,121.5782851,554327013
汽車竊盜,1061109,22~24,洲美里008鄰洲美街139巷口,北投區,北投區洲美里008鄰洲美街139巷口,25.0995913,121.504374,555027036
汽車竊盜,1061112,19~21,蘭興里克強路10巷磺溪便道上,士林區,士林區蘭興里克強路10巷磺溪便道上,25.10983460000001,121.5240848,555227049
汽車竊盜,1061113,04~06,吉利里致遠二路87巷1 ~ 30號,北投區,北投區吉利里致遠二路87巷1號,25.1163965,121.51100919999999,555427049
汽車竊盜,1061113,13~15,劍南路(靠西湖福湖宮),中山區,中山區劍南路(靠西湖福湖宮),25.0888614,121.5546244,554827036
汽車竊盜,1061119,10~12,樟林里024鄰興隆路4段58巷16弄1 ~ 30號,文山區,文山區樟林里024鄰興隆路4段58巷16弄1號,24.992911,121.55866499999999,552726799
汽車竊盜,1061119,16~18,忠勤里中華路2段301巷底,中正區,中正區忠勤里中華路2段301巷底,25.029662300000002,121.505071,553526908
汽車竊盜,1061202,13~15,承德路2段61 ~ 90號,大同區,大同區承德路2段61號,25.05548,121.5184065,554026974
汽車竊盜,1061203,04~06,桂林路堤外61 ~ 90號,萬華區,萬華區桂林路堤外61號,25.039047399999998,121.4958233,553726931
汽車竊盜,1061204,04~06,寶興路80巷1 ~ 30號,萬華區,萬華區寶興路80巷1號,25.02601210000001,121.49433,553426895
汽車竊盜,1061207,13~15,延平河濱公園1 ~ 30號,大同區,大同區延平河濱公園1號,25.054116,121.507081,554026968
汽車竊盜,1061211,04~06,桂林路246巷38停車格弄,萬華區,萬華區桂林路246巷38停車格弄,25.036438699999998,121.49267959999999,553626923
汽車竊盜,1061211,10~12,桂林堤外便道91 ~ 120號,萬華區,萬華區桂林堤外便道91號,25.0379015,121.505719,553726930
汽車竊盜,1061212,07~09,雙園停車場481 ~ 510號,萬華區,萬華區雙園停車場481號,25.0277543,121.491674,553426899
汽車竊盜,1061212,07~09,長順街底堤外停車場第631 ~ 660號,萬華區,萬華區長順街底堤外停車場第631號,25.0313487,121.49074409999999,553526909
汽車竊盜,1061217,16~18,社園里通河西街2段31 ~ 60號,士林區,士林區社園里通河西街2段31號,25.089659100000002,121.511429,554827028
汽車竊盜,1061218,04~06,長順街堤外停車場301 ~ 330號,萬華區,萬華區長順街堤外停車場301號,25.033376399999998,121.48837320000001,553626914
汽車竊盜,1061222,19~21,安康路和成功路2段之間無名巷,內湖區,內湖區安康路和成功路2段之間無名巷,25.06006510000001,121.59137450000001,554126999
汽車竊盜,1061227,19~21,潭美街與新明路460巷口(路邊61 ~ 90號,內湖區,內湖區潭美街與新明路460巷口(路邊61號,25.053486,121.5787368,554026983
汽車竊盜,1070101,10~12,三犁里松德路301 ~ 330號,信義區,信義區三犁里松德路301號,25.031725899999998,121.574712,553526929
汽車竊盜,1070106,16~18,玉門街1 ~ 30號,中山區,中山區玉門街1號,25.0704569,121.52046100000001,554427002
汽車竊盜,1070111,19~21,長順街堤外便道,萬華區,萬華區長順街堤外便道,25.032412899999997,121.4886637,553526912
汽車竊盜,1070111,19~21,榮華里天母西路117巷堤防旁,北投區,北投區榮華里天母西路117巷堤防旁,25.120615,121.5240513,555527054
汽車竊盜,1070114,10~12,華中堤外停車場第4車道31 ~ 60號,萬華區,萬華區華中堤外停車場第4車道31號,25.0157034,121.49652920000001,553226864
汽車竊盜,1070115,04~06,福順里008鄰延平北路5段61 ~ 90號,士林區,士林區福順里008鄰延平北路5段61號,25.0804767,121.5106319,554627016
汽車竊盜,1070117,07~09,龍光里寧波西街與泉州街路口,中正區,中正區龍光里寧波西街與泉州街路口,25.0295378,121.51421289999999,553526909
汽車竊盜,1070118,07~09,景慶里景文街146巷,文山區,文山區景慶里景文街146巷,24.989724600000002,121.5409415,552626783
汽車竊盜,1070122,04~06,福安里延平北路7段1 ~ 30號,士林區,士林區福安里延平北路7段1號,25.0945127,121.4969326,554927030
汽車竊盜,1070122,19~21,安康路106巷31 ~ 60號,內湖區,內湖區安康路106巷31號,25.061010600000003,121.601049,554227003
汽車竊盜,1070201,22~24,萬美里010鄰萬利街萬芳國小後門,文山區,文山區萬美里010鄰萬利街萬芳國小後門,25.0007318,121.5672164,552826830
汽車竊盜,1070203,13~15,桃源里中央北路3段168巷口,北投區,北投區桃源里中央北路3段168巷口,25.1370611,121.4822019,555927046
汽車竊盜,1070214,01~03,長順街堤外便道,萬華區,萬華區長順街堤外便道,25.032412899999997,121.4886637,553526912
汽車竊盜,1070214,07~09,昌吉街121 ~ 150號,大同區,大同區昌吉街121號,25.065996,121.510678,554326992
汽車竊盜,1070302,20~22,桂林路242巷61~90號,萬華區,萬華區桂林路242巷61號,25.037047100000002,121.494184,553626925
汽車竊盜,1070303,04~06,(三清宮前停車格),萬華區,萬華區(三清宮前停車格),25.0354395,121.49089550000001,553626920
汽車竊盜,1070304,02~04,大理街160巷20弄1~30號,萬華區,萬華區大理街160巷20弄1號,25.0330237,121.4940879,553626915
汽車竊盜,1070305,06~08,清白里金湖路181~210號,內湖區,內湖區清白里金湖路181號,25.0788237,121.5996037,554627033
汽車竊盜,1070305,14~16,林森北路481~510號,中山區,中山區林森北路481號,25.061131699999997,121.5257123,554226987
汽車竊盜,1070306,00~02,福林里福林路254巷(路邊停車格),士林區,士林區福林里福林路254巷(路邊停車格),25.0950492,121.5246077,554927037
汽車竊盜,1070306,02~04,民生東路1段(林森北路),中山區,中山區民生東路1段(林森北路),25.058055399999997,121.5255237,554126981
汽車竊盜,1070307,08~10,劍南路648巷口,中山區,中山區劍南路648巷口,25.0863282,121.554148,554727033
汽車竊盜,1070308,04~06,保安街1~30號,大同區,大同區保安街1號,25.059375399999997,121.51420309999999,554126981
汽車竊盜,1070310,14~16,彩虹河濱公園,內湖區,內湖區彩虹河濱公園,25.0599573,121.57232009999998,554126995
汽車竊盜,1070321,02~04,忠孝東路4段101巷(內),大安區,大安區忠孝東路4段101巷(內),25.0422407,121.54793459999999,553826950
汽車竊盜,1070402,00~02,民族路276巷1弄1~30號,板橋市,板橋市民族路276巷1弄1號,25.0065147,121.46979009999998,553026828
汽車竊盜,1070402,00~02,豐年里中央北路2段92巷1弄1~30號,北投區,北投區豐年里中央北路2段92巷1弄1號,25.137672,121.49263799999999,555927048
汽車竊盜,1070402,14~16,(華中橋下堤外停車場第二車道),萬華區,萬華區(華中橋下堤外停車場第二車道),25.0157034,121.49652920000001,553226864
汽車竊盜,1070405,16~18,社子里通河西街2段(堤外停車場),士林區,士林區社子里通河西街2段(堤外停車場),25.094202199999998,121.50698190000001,554927032
汽車竊盜,1070413,14~16,頂崁街210巷66弄(後方重劃區),三重市,三重市頂崁街210巷66弄(後方重劃區),25.067826,121.47458619999999,554326988
汽車竊盜,1070413,14~16,頂崁街206巷66弄(重劃區),三重市,三重市頂崁街206巷66弄(重劃區),25.066647600000003,121.4759564,554326986
汽車竊盜,1070421,04~06,東華里東華街2段271~300號,北投區,北投區東華里東華街2段271號,25.1204183,121.50684229999999,555527050
汽車竊盜,1070422,16~18,(華中橋堤外停車場第2車場),萬華區,萬華區(華中橋堤外停車場第2車場),25.0157034,121.49652920000001,553226864
汽車竊盜,1070425,00~02,景聯里吳興街50巷,信義區,信義區景聯里吳興街50巷,25.030575199999998,121.5595364,553526922
汽車竊盜,1070427,22~24,福志里福林路361~390號,士林區,士林區福志里福林路361號,25.09992,121.535393,555027044
住宅竊盜,1060101,10~12,信義路5段91 ~ 120號,信義區,信義區信義路5段91號,25.0326825,121.56511370000001,553526929
住宅竊盜,1060101,13~15,東新里興南街60巷1 ~ 30號,南港區,南港區東新里興南街60巷1號,25.056374899999998,121.603429,554126994
住宅竊盜,1060101,13~15,林森北路391 ~ 420號,中山區,中山區林森北路391號,25.0586777,121.52570190000002,554126982
住宅竊盜,1060101,22~24,天玉里6鄰天母西路61 ~ 90號,士林區,士林區天玉里6鄰天母西路61號,25.119709699999998,121.5274649,555527054
住宅竊盜,1060101,22~24,松隆里松山路571 ~ 600號,信義區,信義區松隆里松山路571號,25.037356,121.578375,553626945
住宅竊盜,1060101,22~24,景華街128巷3弄1 ~ 30號,文山區,文山區景華街128巷3弄1號,24.9956967,121.54744409999999,552726807
住宅竊盜,1060101,22~24,林森北路107巷31 ~ 60號,中山區,中山區林森北路107巷31號,25.050200699999998,121.526122,553926964
住宅竊盜,1060102,04~06,林森北路31 ~ 60號,中山區,中山區林森北路31號,25.0477008,121.52418119999999,553926958
住宅竊盜,1060104,07~09,中南里忠孝東路7段631 ~ 660號,南港區,南港區中南里忠孝東路7段631號,25.053385000000002,121.61593899999998,554026991
住宅竊盜,1060105,16~18,康樂街48巷1 ~ 30號,內湖區,內湖區康樂街48巷1號,25.0689281,121.61834040000001,554327021
住宅竊盜,1060105,16~18,西寧南路1 ~ 30號,萬華區,萬華區西寧南路1號,25.039827499999998,121.5060435,553726935
住宅竊盜,1060105,19~21,六合里信義路5段150巷211 ~ 240號,信義區,信義區六合里信義路5段150巷211號,25.0287649,121.572175,553526920
住宅竊盜,1060105,22~24,中行里福德街251巷7弄1 ~ 30號,信義區,信義區中行里福德街251巷7弄1號,25.0382057,121.58717220000001,553726949
住宅竊盜,1060106,13~15,環山路2段50巷14弄14之1 ~ 30號,內湖區,內湖區環山路2段50巷14弄14之1號,25.0874581,121.5737665,554827039
住宅竊盜,1060107,13~15,岩山里13鄰芝玉路1段197巷25弄1 ~ 30號,士林區,士林區岩山里13鄰芝玉路1段197巷25弄1號,25.107570499999998,121.53368359999999,555227049
住宅竊盜,1060107,19~21,天祿里士東路91巷1 ~ 30號,士林區,士林區天祿里士東路91巷1號,25.112402,121.52886299999999,555327051
住宅竊盜,1060109,10~12,合成里忠孝東路6段159巷4弄1 ~ 30號,南港區,南港區合成里忠孝東路6段159巷4弄1號,25.045376100000002,121.58299240000001,553826965
住宅竊盜,1060109,16~18,桂林路1 ~ 30號,萬華區,萬華區桂林路1號,25.037703,121.5061818,553726930
住宅竊盜,1060110,04~06,廣州街211 ~ 240號,萬華區,萬華區廣州街211號,25.0367954,121.49993059999998,553626926
住宅竊盜,1060112,04~06,仁慈里復興南路1段279巷1 ~ 30號,大安區,大安區仁慈里復興南路1段279巷1號,25.0356521,121.5456028,553626933
住宅竊盜,1060113,13~15,漢口街2段20巷1 ~ 30號,萬華區,萬華區漢口街2段20巷1號,25.045232000000002,121.508113,553826949
住宅竊盜,1060114,22~24,南京東路4段31 ~ 60號,松山區,松山區南京東路4段31號,25.0519706,121.5506435,554026973
住宅竊盜,1060115,13~15,行義路186巷1 ~ 30號,北投區,北投區行義路186巷1號,25.132623000000002,121.528973,555827057
住宅竊盜,1060116,10~12,大道里忠孝東路5段790巷22弄1 ~ 30號,信義區,信義區大道里忠孝東路5段790巷22弄1號,25.04239530000001,121.58272079999999,553826958
住宅竊盜,1060116,13~15,萬祥里景隆街1巷1 ~ 30號,文山區,文山區萬祥里景隆街1巷1號,25.0006693,121.5399091,552826823
住宅竊盜,1060116,16~18,明勝里通河街323巷1 ~ 30號,士林區,士林區明勝里通河街323巷1號,25.0809313,121.5183107,554627018
住宅竊盜,1060117,01~03,光復北路210巷31 ~ 60號,松山區,松山區光復北路210巷31號,25.0554083,121.55366090000001,554026981
住宅竊盜,1060117,07~09,南福里羅斯福路1段58巷17弄1 ~ 30號,中正區,中正區南福里羅斯福路1段58巷17弄1號,25.0309202,121.5194993,553526914
住宅竊盜,1060117,07~09,車層里忠孝東路4段216巷27弄1 ~ 30號,大安區,大安區車層里忠孝東路4段216巷27弄1號,25.0411784,121.5543688,553726949
住宅竊盜,1060117,16~18,葫蘆里05鄰葫蘆街121 ~ 150號,士林區,士林區葫蘆里05鄰葫蘆街121號,25.083127899999997,121.50777479999999,554727019
住宅竊盜,1060118,13~15,蘭雅里文林路661巷40弄1 ~ 30號,士林區,士林區蘭雅里文林路661巷40弄1號,25.100037300000004,121.5213923,555027041
住宅竊盜,1060120,22~24,成福路171巷40弄1 ~ 30號,南港區,南港區成福路171巷40弄1號,25.0411466,121.5893902,553726957
住宅竊盜,1060121,04~06,福興里自強街5巷151 ~ 180號,北投區,北投區福興里自強街5巷151號,25.1126205,121.5106523,555327047
住宅竊盜,1060121,07~09,萬年里羅斯福路5段212巷1 ~ 30號,文山區,文山區萬年里羅斯福路5段212巷1號,25.0104174,121.53708929999999,553126856
住宅竊盜,1060122,01~03,關渡里大度路3段211 ~ 240號,北投區,北投區關渡里大度路3段211號,25.1230032,121.4675182,555527042
住宅竊盜,1060122,19~21,光信里光復南路456巷1 ~ 30號,大安區,大安區光信里光復南路456巷1號,25.0351552,121.5563047,553626934
住宅竊盜,1060122,19~21,中山北路2段16巷1 ~ 30號,中山區,中山區中山北路2段16巷1號,25.052569100000003,121.5223355,554026968
住宅竊盜,1060123,13~15,幸市里濟南路2段1 ~ 30號,中正區,中正區幸市里濟南路2段1號,25.0426816,121.52011170000002,553826945
住宅竊盜,1060125,22~24,松江路124巷19之1 ~ 30號,中山區,中山區松江路124巷19之1號,25.0526362,121.53121259999999,554026970
住宅竊盜,1060126,01~03,河堤里金門街1 ~ 30號,中正區,中正區河堤里金門街1號,25.02302730000001,121.52479450000001,553326893
住宅竊盜,1060126,19~21,大理街1 ~ 30號,萬華區,萬華區大理街1號,25.034625899999998,121.50307,553626921
住宅竊盜,1060126,19~21,林森北路481 ~ 510號,中山區,中山區林森北路481號,25.061131699999997,121.5257123,554226987
住宅竊盜,1060127,04~06,萬興里004鄰新光路1段95巷1 ~ 30號,文山區,文山區萬興里004鄰新光路1段95巷1號,24.990876,121.5736925,552626795
住宅竊盜,1060127,04~06,松江路186之1 ~ 30號,中山區,中山區松江路186之1號,25.0566054,121.53290679999999,554126979
住宅竊盜,1060127,10~12,中山北路6段236巷1 ~ 30號,中山區,中山區中山北路6段236巷1號,25.1088736,121.5253229,555227048
住宅竊盜,1060127,13~15,樟文里019鄰辛亥路7段76巷1 ~ 30號,文山區,文山區樟文里019鄰辛亥路7段76巷1號,25.0004307,121.5545473,552826826
住宅竊盜,1060127,22~24,大南路241 ~ 270號,士林區,士林區大南路241號,25.0884899,121.52043700000002,554827028
住宅竊盜,1060128,01~03,芝山里13鄰士東路266巷3弄1 ~ 30號,士林區,士林區芝山里13鄰士東路266巷3弄1號,25.112808100000002,121.53668799999998,555327053
住宅竊盜,1060128,01~03,德惠街167巷1 ~ 30號,中山區,中山區德惠街167巷1號,25.067021399999998,121.53163529999999,554326999
住宅竊盜,1060128,16~18,天福里4鄰忠誠路2段154巷1 ~ 30號,士林區,士林區天福里4鄰忠誠路2段154巷1號,25.115092100000002,121.53297620000001,555427053
住宅竊盜,1060129,16~18,立賢里尊賢街241 ~ 270號,北投區,北投區立賢里尊賢街241號,25.1165907,121.50739209999999,555427048
住宅竊盜,1060130,16~18,民生東路3段91 ~ 120號,松山區,松山區民生東路3段91號,25.0578409,121.5441466,554126984
住宅竊盜,1060202,07~09,永功里汀州路1段271 ~ 300號,中正區,中正區永功里汀州路1段271號,25.0264922,121.5134423,553426901
住宅竊盜,1060202,10~12,名山里至誠路2段92巷3弄1 ~ 30號,士林區,士林區名山里至誠路2段92巷3弄1號,25.101536199999998,121.52780729999999,555127043
住宅竊盜,1060202,13~15,中山北路2段62巷28之1 ~ 30號,中山區,中山區中山北路2段62巷28之1號,25.056689000000002,121.521235,554126977
住宅竊盜,1060202,22~24,龍江路370巷31 ~ 60號,中山區,中山區龍江路370巷31號,25.066524899999997,121.539285,554327000
住宅竊盜,1060203,13~15,光復北路26巷1 ~ 30號,松山區,松山區光復北路26巷1號,25.0491543,121.55741640000001,553926969
住宅竊盜,1060203,22~24,通化里光復南路691 ~ 720號,大安區,大安區通化里光復南路691號,25.0298642,121.5573382,553526920
住宅竊盜,1060205,13~15,敦化南路1段177巷1 ~ 30號,大安區,大安區敦化南路1段177巷1號,25.043142800000002,121.54982659999999,553826953
住宅竊盜,1060207,04~06,東明里興華路61 ~ 90號,南港區,南港區東明里興華路61號,25.053547299999998,121.60168940000001,554026988
住宅竊盜,1060207,16~18,興得里11鄰興隆路3段36巷9弄1 ~ 30號,文山區,文山區興得里11鄰興隆路3段36巷9弄1號,25.0008905,121.55476609999998,552826828
住宅竊盜,1060207,19~21,港華街109巷1 ~ 30號,內湖區,內湖區港華街109巷1號,25.0837937,121.5731837,554727034
住宅竊盜,1060208,07~09,萬美里010鄰萬美街1段91 ~ 120號,文山區,文山區萬美里010鄰萬美街1段91號,25.001068,121.56631999999999,552826831
住宅竊盜,1060208,07~09,民權東路3段75巷2弄1 ~ 30號,中山區,中山區民權東路3段75巷2弄1號,25.0630017,121.54356270000001,554226994
住宅竊盜,1060208,07~09,和安里建國南路1段301 ~ 330號,大安區,大安區和安里建國南路1段301號,25.035422,121.538315,553626931
住宅竊盜,1060208,07~09,安東街16巷1 ~ 30號,中山區,中山區安東街16巷1號,25.04550960000001,121.5420989,553826957
住宅竊盜,1060208,19~21,東華里致遠三路61 ~ 90號,北投區,北投區東華里致遠三路61號,25.121155899999998,121.511733,555527051
住宅竊盜,1060209,04~06,忠勤里中華路2段315巷4弄1 ~ 30號,中正區,中正區忠勤里中華路2段315巷4弄1號,25.027835999999997,121.506881,553426903
住宅竊盜,1060209,16~18,東園街181 ~ 210號,萬華區,萬華區東園街181號,25.023807,121.49754899999999,553326889
住宅竊盜,1060210,07~09,建國北路3段91 ~ 120號,中山區,中山區建國北路3段91號,25.0656924,121.5367723,554326998
住宅竊盜,1060210,07~09,萬大路187巷1弄1 ~ 30號,萬華區,萬華區萬大路187巷1弄1號,25.028102,121.50083629999999,553426902
住宅竊盜,1060211,10~12,南福里重慶南路3段1 ~ 30號,中正區,中正區南福里重慶南路3段1號,25.029618399999997,121.5154985,553526910
住宅竊盜,1060212,19~21,明水路631 ~ 660號,中山區,中山區明水路631號,25.082615899999997,121.55111389999999,554627028
住宅竊盜,1060213,13~15,榮華里榮華一路1 ~ 30號,北投區,北投區榮華里榮華一路1號,25.113058499999998,121.52464440000001,555327051
住宅竊盜,1060214,19~21,星明里五原路1 ~ 30號,大同區,大同區星明里五原路1號,25.0566201,121.5176173,554126976
住宅竊盜,1060216,07~09,星明里民生西路178巷1 ~ 30號,大同區,大同區星明里民生西路178巷1號,25.0570139,121.5175949,554126977
住宅竊盜,1060216,16~18,中和里4鄰中和街455巷3弄1 ~ 30號,北投區,北投區中和里4鄰中和街455巷3弄1號,25.1441867,121.4966571,556027048
住宅竊盜,1060219,01~03,內湖路1段411巷91 ~ 120號,內湖區,內湖區內湖路1段411巷91號,25.0844397,121.5722628,554727035
住宅竊盜,1060220,01~03,林森北路85巷1 ~ 30號,中山區,中山區林森北路85巷1號,25.049768399999998,121.5251252,553926963
住宅竊盜,1060221,07~09,木柵路5段61 ~ 90號,文山區,文山區木柵路5段61號,24.9984324,121.5535335,552826818
住宅竊盜,1060221,19~21,港華街109巷1 ~ 30號,內湖區,內湖區港華街109巷1號,25.0837937,121.5731837,554727034
住宅竊盜,1060221,19~21,港華街109巷1 ~ 30號,內湖區,內湖區港華街109巷1號,25.0837937,121.5731837,554727034
住宅竊盜,1060222,13~15,文林里文林北路272巷1 ~ 30號,北投區,北投區文林里文林北路272巷1號,25.109427899999996,121.5131981,555227046
住宅竊盜,1060222,13~15,行義路58巷22弄1 ~ 30號,北投區,北投區行義路58巷22弄1號,25.1257509,121.52874209999999,555627056
住宅竊盜,1060222,19~21,龍坡里雲和街91 ~ 120號,大安區,大安區龍坡里雲和街91號,25.023436,121.531101,553326896
住宅竊盜,1060222,22~24,興旺里12鄰福興路78巷10弄1 ~ 30號,文山區,文山區興旺里12鄰福興路78巷10弄1號,25.0043575,121.5505663,552926839
住宅竊盜,1060223,19~21,永倫里永平街80巷1 ~ 30號,士林區,士林區永倫里永平街80巷1號,25.091648899999996,121.5053946,554827029
住宅竊盜,1060224,16~18,康樂街61巷15弄1 ~ 30號,內湖區,內湖區康樂街61巷15弄1號,25.0691016,121.61965459999999,554327022
住宅竊盜,1060224,22~24,四平街1 ~ 30號,中山區,中山區四平街1號,25.0535786,121.53210700000001,554026973
住宅竊盜,1060224,22~24,雙城街13巷1 ~ 30號,中山區,中山區雙城街13巷1號,25.06417,121.52456459999999,554226992
住宅竊盜,1060225,10~12,安康路226巷1 ~ 30號,內湖區,內湖區安康路226巷1號,25.061802,121.602951,554227005
住宅竊盜,1060225,16~18,富福里大理街1 ~ 30號,萬華區,萬華區富福里大理街1號,25.034625899999998,121.50307,553626921
住宅竊盜,1060226,10~12,安康路106巷31 ~ 60號,內湖區,內湖區安康路106巷31號,25.061010600000003,121.601049,554227003
住宅竊盜,1060227,19~21,西昌街181 ~ 210號,萬華區,萬華區西昌街181號,25.038676300000002,121.50074,553726931
住宅竊盜,1060228,22~24,內湖路2段253巷2弄1 ~ 30號,內湖區,內湖區內湖路2段253巷2弄1號,25.0820309,121.58971909999998,554627035
住宅竊盜,1060301,10~12,愛國里中華路2段31 ~ 60號,中正區,中正區愛國里中華路2段31號,25.034145300000002,121.50557479999999,553626920
住宅竊盜,1060301,10~12,成都路76巷1 ~ 30號,萬華區,萬華區成都路76巷1號,25.042536899999998,121.50504,553826941
住宅竊盜,1060301,13~15,龍圖里建國南路2段25巷1 ~ 30號,大安區,大安區龍圖里建國南路2段25巷1號,25.0332637,121.53757040000002,553626925
住宅竊盜,1060301,22~24,農安街,中山區,中山區農安街,25.0648401,121.52943049999999,554326994
住宅竊盜,1060302,01~03,雙連里歸綏街91 ~ 120號,大同區,大同區雙連里歸綏街91號,25.058832199999998,121.51640640000001,554126980
住宅竊盜,1060303,16~18,仁勇里10鄰大東路84巷1 ~ 30號,士林區,士林區仁勇里10鄰大東路84巷1號,25.0911358,121.5258519,554827033
住宅竊盜,1060303,16~18,至聖里承德路3段247巷1 ~ 30號,大同區,大同區至聖里承德路3段247巷1號,25.071355,121.51884799999999,554427003
住宅竊盜,1060304,22~24,健康路225巷1 ~ 30號,松山區,松山區健康路225巷1號,25.0544582,121.56226550000001,554026981
住宅竊盜,1060306,19~21,樟樹里007鄰興隆路4段74巷1 ~ 30號,文山區,文山區樟樹里007鄰興隆路4段74巷1號,24.992911,121.55866499999999,552726799
住宅竊盜,1060309,19~21,延壽街31 ~ 60號,松山區,松山區延壽街31號,25.057424899999997,121.56814909999999,554126989
住宅竊盜,1060312,01~03,北寧路7巷1 ~ 30號,松山區,松山區北寧路7巷1號,25.04863030000001,121.5526221,553926966
住宅竊盜,1060312,13~15,建功里華亭街31 ~ 60號,大同區,大同區建功里華亭街31號,25.0526586,121.5133082,554026967
住宅竊盜,1060313,10~12,內湖路2段253巷2弄1 ~ 30號,內湖區,內湖區內湖路2段253巷2弄1號,25.0820309,121.58971909999998,554627035
住宅竊盜,1060313,19~21,長沙街2段1 ~ 30號,萬華區,萬華區長沙街2段1號,25.040589,121.504944,553726937
住宅竊盜,1060314,10~12,永倫里永平街75巷31 ~ 60號,士林區,士林區永倫里永平街75巷31號,25.0913642,121.50364779999998,554827028
住宅竊盜,1060315,07~09,峨眉街91 ~ 120號,萬華區,萬華區峨眉街91號,25.0440202,121.50485630000001,553826945
住宅竊盜,1060315,10~12,南京東路5段123巷6弄1 ~ 30號,松山區,松山區南京東路5段123巷6弄1號,25.051820499999998,121.5574435,554026974
住宅竊盜,1060315,19~21,農安街1 ~ 30號,中山區,中山區農安街1號,25.06496700000001,121.5295986,554326995
住宅竊盜,1060316,10~12,群英里四維路170巷31 ~ 60號,大安區,大安區群英里四維路170巷31號,25.0283708,121.54673490000002,553426913
住宅竊盜,1060316,19~21,承德里後港街31 ~ 60號,士林區,士林區承德里後港街31號,25.0834851,121.5230257,554727023
住宅竊盜,1060317,10~12,住安里大安路2段3巷31 ~ 60號,大安區,大安區住安里大安路2段3巷31號,25.0348294,121.54592120000001,553626931
住宅竊盜,1060318,10~12,奇岩里公?路340巷1 ~ 30號,北投區,北投區奇岩里公?路340巷1號,25.130027399999996,121.51273390000001,555727053
住宅竊盜,1060319,07~09,名山里1鄰至誠路1段301 ~ 330號,士林區,士林區名山里1鄰至誠路1段301號,25.101717,121.528282,555127044
住宅竊盜,1060320,04~06,林森北路91 ~ 120號,中山區,中山區林森北路91號,25.0500078,121.52496299999999,553926963
住宅竊盜,1060320,10~12,長春里虎林街108巷31 ~ 60號,信義區,信義區長春里虎林街108巷31號,25.0426009,121.576177,553826957
住宅竊盜,1060320,19~21,興隆里逸仙路50巷1 ~ 30號,信義區,信義區興隆里逸仙路50巷1號,25.0406161,121.5630199,553726950
住宅竊盜,1060321,01~03,龍光里2鄰重慶南路2段61 ~ 90號,中正區,中正區龍光里2鄰重慶南路2段61號,25.041520000000002,121.513273,553726941
住宅竊盜,1060321,10~12,三民路74巷1 ~ 30號,松山區,松山區三民路74巷1號,25.055870600000002,121.56395970000001,554126985
住宅竊盜,1060321,19~21,天山里5鄰中山北路7段82巷10弄31 ~ 60號,士林區,士林區天山里5鄰中山北路7段82巷10弄31號,25.121505399999997,121.5315024,555527056
住宅竊盜,1060321,22~24,福華里承德路4段40巷1 ~ 30號,士林區,士林區福華里承德路4段40巷1號,25.0807939,121.5223739,554627019
住宅竊盜,1060322,10~12,健康路325巷25弄1 ~ 30號,松山區,松山區健康路325巷25弄1號,25.0565711,121.56702759999999,554126987
住宅竊盜,1060322,10~12,健康路325巷25弄1 ~ 30號,松山區,松山區健康路325巷25弄1號,25.0565711,121.56702759999999,554126987
住宅竊盜,1060323,07~09,立農里吉利街257巷5弄1 ~ 30號,北投區,北投區立農里吉利街257巷5弄1號,25.119030600000002,121.51049099999999,555527050
住宅竊盜,1060324,10~12,開明里翠宜路1 ~ 30號,北投區,北投區開明里翠宜路1號,25.143904,121.50513799999999,556027050
住宅竊盜,1060324,16~18,興雅里永吉路30巷157弄1 ~ 30號,信義區,信義區興雅里永吉路30巷157弄1號,25.042415,121.56888500000001,553826955
住宅竊盜,1060325,07~09,內湖路3段59巷7弄1 ~ 30號,內湖區,內湖區內湖路3段59巷7弄1號,25.085866,121.591936,554727041
住宅竊盜,1060326,07~09,內湖路2段179巷63弄1 ~ 30號,內湖區,內湖區內湖路2段179巷63弄1號,25.0822638,121.56902579999999,554627031
住宅竊盜,1060326,10~12,社新里4鄰延平北路6段121 ~ 150號,士林區,士林區社新里4鄰延平北路6段121號,25.089378,121.505847,554827026
住宅竊盜,1060326,22~24,合江街130巷1 ~ 30號,中山區,中山區合江街130巷1號,25.059643100000002,121.53893810000001,554126987
住宅竊盜,1060327,13~15,陽光街61 ~ 90號,內湖區,內湖區陽光街61號,25.076411,121.58660479999999,554527027
住宅竊盜,1060327,16~18,林森北路107巷1 ~ 30號,中山區,中山區林森北路107巷1號,25.050328699999998,121.52525259999999,553926964
住宅竊盜,1060328,07~09,鄰江里迪化街2段296巷1 ~ 30號,大同區,大同區鄰江里迪化街2段296巷1號,25.0626918,121.5091971,554226986
住宅竊盜,1060328,10~12,永昌里中華路2段381巷1 ~ 30號,中正區,中正區永昌里中華路2段381巷1號,25.0265755,121.5078696,553426900
住宅竊盜,1060329,13~15,內湖路一段285巷69弄31 ~ 60號,內湖區,內湖區內湖路一段285巷69弄31號,25.084669199999997,121.5685635,554727034
住宅竊盜,1060330,19~21,光信里17鄰延吉街241 ~ 270號,大安區,大安區光信里17鄰延吉街241號,25.0357826,121.5556525,553626936
住宅竊盜,1060330,19~21,民輝里新生南路1段103巷31 ~ 60號,大安區,大安區民輝里新生南路1段103巷31號,25.044019,121.533227,553826951
住宅竊盜,1060330,19~21,長泰街61 ~ 90號,萬華區,萬華區長泰街61號,25.0228883,121.50002260000001,553326887
住宅竊盜,1060331,19~21,建國北路2段91 ~ 120號,中山區,中山區建國北路2段91號,25.0587151,121.5373897,554126984
住宅竊盜,1060401,04~06,樟樹里014鄰興隆路4段96巷4弄1 ~ 30號,文山區,文山區樟樹里014鄰興隆路4段96巷4弄1號,24.9832422,121.56142450000002,552426762
住宅竊盜,1060401,22~24,迪化街2段181 ~ 210號,大同區,大同區迪化街2段181號,25.06802260000001,121.5106269,554326996
住宅竊盜,1060404,04~06,稻香里新興路121 ~ 150號,北投區,北投區稻香里新興路121號,25.1402069,121.487229,555927047
住宅竊盜,1060405,04~06,南福里重慶南路3段1 ~ 30號,中正區,中正區南福里重慶南路3段1號,25.029618399999997,121.5154985,553526910
住宅竊盜,1060405,10~12,新東街51巷1 ~ 30號,松山區,松山區新東街51巷1號,25.0615798,121.56504650000001,554226996
住宅竊盜,1060406,10~12,自強里7鄰三民路74巷1 ~ 30號,松山區,松山區自強里7鄰三民路74巷1號,25.055870600000002,121.56395970000001,554126985
住宅竊盜,1060406,13~15,安泰街38巷1 ~ 30號,內湖區,內湖區安泰街38巷1號,25.0734478,121.61749920000001,554427029
住宅竊盜,1060409,07~09,清江里清江路1 ~ 30號,北投區,北投區清江里清江路1號,25.131746399999997,121.50144540000001,555727051
住宅竊盜,1060409,16~18,大湖街160巷2弄1 ~ 30號,內湖區,內湖區大湖街160巷2弄1號,25.083489,121.6004315,554727040
住宅竊盜,1060410,07~09,稻香里新興路121 ~ 150號,北投區,北投區稻香里新興路121號,25.1402069,121.487229,555927047
住宅竊盜,1060411,22~24,農安街241 ~ 270號,中山區,中山區農安街241號,25.064771,121.53456899999999,554326995
住宅竊盜,1060412,04~06,陽明里中庸一路1 ~ 30號,士林區,士林區陽明里中庸一路1號,25.1351686,121.5483111,555827061
住宅竊盜,1060413,16~18,指南里018鄰萬壽路91 ~ 120號,文山區,文山區指南里018鄰萬壽路91號,24.9808089,121.585475,552426757
住宅竊盜,1060413,16~18,萬隆里羅斯福路5段236巷14弄1 ~ 30號,文山區,文山區萬隆里羅斯福路5段236巷14弄1號,25.0015548,121.5389517,552926826
住宅竊盜,1060414,22~24,蘭雅里中山北路6段290巷28弄1 ~ 30號,士林區,士林區蘭雅里中山北路6段290巷28弄1號,25.109145,121.52662930000001,555227049
住宅竊盜,1060415,10~12,南芳里民權西路292巷1 ~ 30號,大同區,大同區南芳里民權西路292巷1號,25.0627125,121.51057730000001,554226986
住宅竊盜,1060416,22~24,林泉里新民路1巷1 ~ 30號,北投區,北投區林泉里新民路1巷1號,25.1396117,121.5078357,555927051
住宅竊盜,1060417,01~03,中山北路2段61 ~ 90號,中山區,中山區中山北路2段61號,25.056176899999997,121.52299199999999,554126976
住宅竊盜,1060417,13~15,大湖里大湖山莊街61巷1 ~ 30號,內湖區,內湖區大湖里大湖山莊街61巷1號,25.085886,121.603567,554727044
住宅竊盜,1060417,13~15,五分里30鄰東湖路106巷7弄31 ~ 60號,內湖區,內湖區五分里30鄰東湖路106巷7弄31號,25.068297100000002,121.613506,554327019
住宅竊盜,1060418,01~03,林森北路85巷31 ~ 60號,中山區,中山區林森北路85巷31號,25.0495469,121.52602399999999,553926962
住宅竊盜,1060418,07~09,新生北路2段137巷31 ~ 60號,中山區,中山區新生北路2段137巷31號,25.0613883,121.5287358,554226988
住宅竊盜,1060418,16~18,黎明里漢口街1 ~ 30號,中正區,中正區黎明里漢口街1號,25.0452642,121.5146888,553826950
住宅竊盜,1060418,22~24,雙園街152巷1 ~ 30號,萬華區,萬華區雙園街152巷1號,25.031401199999998,121.4916768,553526910
住宅竊盜,1060419,16~18,義村里復興南路1段181 ~ 210號,大安區,大安區義村里復興南路1段181號,25.032602100000002,121.5438699,553526924
住宅竊盜,1060420,07~09,建功里重慶北路1段1 ~ 30號,大同區,大同區建功里重慶北路1段1號,25.049577,121.513627,553926960
住宅竊盜,1060420,10~12,星雲街33巷27弄1 ~ 30號,內湖區,內湖區星雲街33巷27弄1號,25.0795915,121.59106129999999,554627032
住宅竊盜,1060420,16~18,蓬萊里昌吉街1 ~ 30號,大同區,大同區蓬萊里昌吉街1號,25.0659729,121.5178956,554326994
住宅竊盜,1060420,22~24,安康里忠孝東路5段236巷45弄1 ~ 30號,信義區,信義區安康里忠孝東路5段236巷45弄1號,25.037684,121.572069,553726944
住宅竊盜,1060421,16~18,天祿里10鄰中山北路6段450巷31 ~ 60號,士林區,士林區天祿里10鄰中山北路6段450巷31號,25.1138118,121.52792759999998,555327052
住宅竊盜,1060421,16~18,江南街71巷31 ~ 60號,內湖區,內湖區江南街71巷31號,25.076559600000003,121.57822820000001,554527025
住宅竊盜,1060422,07~09,成福里成福路121巷56弄1 ~ 30號,南港區,南港區成福里成福路121巷56弄1號,25.0429912,121.58851570000002,553826961
住宅竊盜,1060422,13~15,富光里葫蘆街104巷1 ~ 30號,士林區,士林區富光里葫蘆街104巷1號,25.082425699999998,121.5081903,554627018
住宅竊盜,1060422,19~21,天壽里9鄰中山北路6段405巷31 ~ 60號,士林區,士林區天壽里9鄰中山北路6段405巷31號,25.114697,121.52557970000001,555427052
住宅竊盜,1060422,22~24,建國北路2段61 ~ 90號,中山區,中山區建國北路2段61號,25.055757,121.537466,554126978
住宅竊盜,1060423,16~18,延吉街235巷1 ~ 30號,大安區,大安區延吉街235巷1號,25.036755199999998,121.5558001,553626938
住宅竊盜,1060425,01~03,合江街1 ~ 30號,中山區,中山區合江街1號,25.054903,121.539184,554026977
住宅竊盜,1060425,01~03,東新街91 ~ 120號,南港區,南港區東新街91號,25.046711600000002,121.5891107,553926970
住宅竊盜,1060425,04~06,內湖路1段203巷1 ~ 30號,內湖區,內湖區內湖路1段203巷1號,25.083963600000004,121.56351289999999,554727032
住宅竊盜,1060425,19~21,黎明里漢口街1段1 ~ 30號,中正區,中正區黎明里漢口街1段1號,25.0452642,121.5146888,553826950
住宅竊盜,1060425,19~21,黎明里漢口街1段1 ~ 30號,中正區,中正區黎明里漢口街1段1號,25.0452642,121.5146888,553826950
住宅竊盜,1060426,04~06,立賢里尊賢街239巷1 ~ 30號,北投區,北投區立賢里尊賢街239巷1號,25.116305999999998,121.5074758,555427048
住宅竊盜,1060426,10~12,舊佳里前街125巷1 ~ 30號,士林區,士林區舊佳里前街125巷1號,25.0989234,121.5255476,555027040
住宅竊盜,1060427,01~03,長沙街2段181 ~ 210號,萬華區,萬華區長沙街2段181號,25.040844500000002,121.501325,553726936
住宅竊盜,1060427,10~12,富洲里延平北路8段181 ~ 210號,士林區,士林區富洲里延平北路8段181號,25.1059709,121.4775342,555227036
住宅竊盜,1060427,13~15,萬祥里景明街14巷1 ~ 30號,文山區,文山區萬祥里景明街14巷1號,25.0019413,121.54114070000001,552926828
住宅竊盜,1060427,19~21,天玉里11鄰天母北路28巷1 ~ 30號,士林區,士林區天玉里11鄰天母北路28巷1號,25.119793899999998,121.52603400000001,555527054
住宅竊盜,1060429,01~03,成福里東新街91 ~ 120號,南港區,南港區成福里東新街91號,25.046711600000002,121.5891107,553926970
住宅竊盜,1060429,04~06,臥龍里臥龍街60巷1 ~ 30號,大安區,大安區臥龍里臥龍街60巷1號,25.0216646,121.5474423,553326894
住宅竊盜,1060501,04~06,內湖路1段91巷92弄31 ~ 60號,內湖區,內湖區內湖路1段91巷92弄31號,25.0870843,121.56297350000001,554727036
住宅竊盜,1060501,22~24,民權東路6段190巷61弄1 ~ 30號,內湖區,內湖區民權東路6段190巷61弄1號,25.0663913,121.5944889,554327012
住宅竊盜,1060501,22~24,林森北路159巷31 ~ 60號,中山區,中山區林森北路159巷31號,25.051594,121.52644,554026967
住宅竊盜,1060502,04~06,碧山里內湖路3段60巷12弄1 ~ 30號,內湖區,內湖區碧山里內湖路3段60巷12弄1號,25.0879039,121.59226799999999,554827044
住宅竊盜,1060502,10~12,玉泉里忠孝西路2段1 ~ 30號,大同區,大同區玉泉里忠孝西路2段1號,25.048243399999997,121.51012890000001,553926956
住宅竊盜,1060502,13~15,林森北路511 ~ 540號,中山區,中山區林森北路511號,25.061975600000004,121.52574550000001,554226988
住宅竊盜,1060503,04~06,成福里東新街91 ~ 120號,南港區,南港區成福里東新街91號,25.046711600000002,121.5891107,553926970
住宅竊盜,1060503,10~12,合江街61巷1 ~ 30號,中山區,中山區合江街61巷1號,25.0573234,121.5392565,554126982
住宅竊盜,1060503,22~24,興隆路1段151 ~ 180號,文山區,文山區興隆路1段151號,25.0017867,121.54244140000002,552926828
住宅竊盜,1060503,22~24,峨眉街61 ~ 90號,萬華區,萬華區峨眉街61號,25.043670499999998,121.50616540000001,553826944
住宅竊盜,1060504,16~18,黎明里漢口街1段1 ~ 30號,中正區,中正區黎明里漢口街1段1號,25.0452642,121.5146888,553826950
住宅竊盜,1060504,19~21,黎明里漢口街1段1 ~ 30號,中正區,中正區黎明里漢口街1段1號,25.0452642,121.5146888,553826950
住宅竊盜,1060504,19~21,黎明里漢口街1段20巷6弄,中正區,中正區黎明里漢口街1段20巷6弄,25.0452642,121.5146888,553826950
住宅竊盜,1060505,01~03,洲美里洲美街139巷1 ~ 30號,北投區,北投區洲美里洲美街139巷1號,25.0997157,121.504337,555027036
住宅竊盜,1060506,13~15,東新里向陽路121 ~ 150號,南港區,南港區東新里向陽路121號,25.0555234,121.5941114,554026991
住宅竊盜,1060508,10~12,頂東里晉江街124巷1 ~ 30號,中正區,中正區頂東里晉江街124巷1號,25.0221312,121.5253502,553326891
住宅竊盜,1060508,22~24,環河南路1段61 ~ 90號,萬華區,萬華區環河南路1段61號,25.0452812,121.5023915,553826947
住宅竊盜,1060509,10~12,虎嘯里敦化南路2段151 ~ 180號,大安區,大安區虎嘯里敦化南路2段151號,25.026943499999998,121.54898899999999,553426910
住宅竊盜,1060509,13~15,成功路2段451 ~ 480號,內湖區,內湖區成功路2段451號,25.072126899999997,121.58970649999999,554427021
住宅竊盜,1060510,07~09,景新里吳興街91 ~ 120號,信義區,信義區景新里吳興街91號,25.030587,121.56085130000001,553526923
住宅竊盜,1060510,19~21,景新里吳興街91 ~ 120號,信義區,信義區景新里吳興街91號,25.030587,121.56085130000001,553526923
住宅竊盜,1060511,10~12,長安西路301 ~ 330號,大同區,大同區長安西路301號,25.052306,121.507892,554026965
住宅竊盜,1060511,13~15,民權東路6段180巷77弄1 ~ 30號,內湖區,內湖區民權東路6段180巷77弄1號,25.0661509,121.5932294,554327011
住宅竊盜,1060512,01~03,民生東路4段121 ~ 150號,松山區,松山區民生東路4段121號,25.058281,121.55348500000001,554126987
住宅竊盜,1060512,01~03,老師里延平北路4段179巷1 ~ 30號,大同區,大同區老師里延平北路4段179巷1號,25.076291,121.512272,554527010
住宅竊盜,1060513,13~15,福興里致遠一路2段61 ~ 90號,北投區,北投區福興里致遠一路2段61號,25.112271399999997,121.513337,555327048
住宅竊盜,1060515,04~06,延平北路8段80巷51弄1 ~ 30號,士林區,士林區延平北路8段80巷51弄1號,25.1055473,121.48456000000002,555227037
住宅竊盜,1060515,16~18,三犁里松仁路211 ~ 240號,信義區,信義區三犁里松仁路211號,25.026877,121.56853899999999,553426914
住宅竊盜,1060515,19~21,錦州街151 ~ 180號,中山區,中山區錦州街151號,25.0603365,121.52967350000002,554226986
住宅竊盜,1060516,13~15,芳和里樂業街91 ~ 120號,大安區,大安區芳和里樂業街91號,25.0212492,121.5515815,553326894
住宅竊盜,1060516,16~18,建功里重慶北路1段83巷31 ~ 60號,大同區,大同區建功里重慶北路1段83巷31號,25.0526704,121.5141467,554026967
住宅竊盜,1060517,04~06,重陽里重陽路211 ~ 240號,南港區,南港區重陽里重陽路211號,25.057582699999998,121.60130729999999,554126996
住宅竊盜,1060517,10~12,螢雪里9鄰汀洲路2段6巷1 ~ 30號,中正區,中正區螢雪里9鄰汀洲路2段6巷1號,25.002856299999998,121.53553149999999,552926830
住宅竊盜,1060517,13~15,五分里32鄰康寧路3段265巷12之1 ~ 30號,內湖區,內湖區五分里32鄰康寧路3段265巷12之1號,25.0691123,121.6119014,554327020
住宅竊盜,1060518,10~12,長沙街2段121 ~ 150號,萬華區,萬華區長沙街2段121號,25.0405516,121.50351940000002,553726936
住宅竊盜,1060518,19~21,東園街151 ~ 180號,萬華區,萬華區東園街151號,25.024539100000002,121.4972242,553426891
住宅竊盜,1060519,07~09,名山里中山北路6段2巷31 ~ 60號,士林區,士林區名山里中山北路6段2巷31號,25.103435,121.5274121,555127045
住宅竊盜,1060519,19~21,新生北路3段11巷1 ~ 30號,中山區,中山區新生北路3段11巷1號,25.0637969,121.52751470000001,554226992
住宅竊盜,1060520,16~18,伊通街66之1 ~ 30號,中山區,中山區伊通街66之1號,25.0522003,121.53489040000001,554026970
住宅竊盜,1060523,10~12,螢圃里重慶南路3段65巷4弄1 ~ 30號,中正區,中正區螢圃里重慶南路3段65巷4弄1號,25.041536999999998,121.513279,553726941
住宅竊盜,1060523,13~15,泉源里1鄰珠海路121 ~ 150號,北投區,北投區泉源里1鄰珠海路121號,25.1423283,121.5062733,556027050
住宅竊盜,1060523,13~15,錦州街181 ~ 210號,中山區,中山區錦州街181號,25.0604257,121.53103899999999,554226986
住宅竊盜,1060523,16~18,螢圃里重慶南路3段65巷4弄1 ~ 30號,中正區,中正區螢圃里重慶南路3段65巷4弄1號,25.041536999999998,121.513279,553726941
住宅竊盜,1060523,16~18,螢圃里重慶南路3段65巷4弄1 ~ 30號,中正區,中正區螢圃里重慶南路3段65巷4弄1號,25.041536999999998,121.513279,553726941
住宅竊盜,1060523,16~18,螢圃里重慶南路3段65巷4弄1 ~ 30號,中正區,中正區螢圃里重慶南路3段65巷4弄1號,25.041536999999998,121.513279,553726941
住宅竊盜,1060523,19~21,德惠街3巷1 ~ 30號,中山區,中山區德惠街3巷1號,25.067018,121.5231105,554326997
住宅竊盜,1060524,07~09,民生東路3段9巷1 ~ 30號,中山區,中山區民生東路3段9巷1號,25.058335500000002,121.5376308,554126984
住宅竊盜,1060525,07~09,試院里006鄰和興路53巷2弄1 ~ 30號,文山區,文山區試院里006鄰和興路53巷2弄1號,24.985307000000002,121.54783400000001,552526767
住宅竊盜,1060526,04~06,黎元里安居街124巷1 ~ 30號,大安區,大安區黎元里安居街124巷1號,25.0184183,121.5518394,553226885
住宅竊盜,1060528,19~21,吳興街350巷1 ~ 30號,信義區,信義區吳興街350巷1號,25.025536499999998,121.5662713,553426910
住宅竊盜,1060528,22~24,河堤里金門街1 ~ 30號,中正區,中正區河堤里金門街1號,25.02302730000001,121.52479450000001,553326893
住宅竊盜,1060529,19~21,松江路362巷1 ~ 30號,中山區,中山區松江路362巷1號,25.0619877,121.5328981,554226990
住宅竊盜,1060530,10~12,建國北路2段258巷1 ~ 30號,中山區,中山區建國北路2段258巷1號,25.061918300000002,121.5364888,554226991
住宅竊盜,1060530,19~21,奇岩里公館路130巷1弄1 ~ 30號,北投區,北投區奇岩里公館路130巷1弄1號,25.1293397,121.50505679999999,555727051
住宅竊盜,1060531,07~09,西園路320巷36弄1 ~ 30號,萬華區,萬華區西園路320巷36弄1號,25.026044,121.4923983,553426895
住宅竊盜,1060531,16~18,敦安里敦化南路1段295巷31 ~ 60號,大安區,大安區敦安里敦化南路1段295巷31號,25.0330358,121.54921809999999,553626927
住宅竊盜,1060601,07~09,玉成街201巷1 ~ 30號,南港區,南港區玉成街201巷1號,25.0442924,121.5847631,553826963
住宅竊盜,1060601,13~15,幸福里杭州南路1段6巷1 ~ 30號,中正區,中正區幸福里杭州南路1段6巷1號,25.034737,121.5241519,553626926
住宅竊盜,1060601,22~24,撫遠街400巷31 ~ 60號,松山區,松山區撫遠街400巷31號,25.065307699999998,121.5653121,554327003
住宅竊盜,1060602,07~09,至聖里大龍街271 ~ 300號,大同區,大同區至聖里大龍街271號,25.0717907,121.5159395,554427004
住宅竊盜,1060602,13~15,桃源里中央北路3段236巷1 ~ 30號,北投區,北投區桃源里中央北路3段236巷1號,25.1360854,121.48017620000002,555827046
住宅竊盜,1060602,16~18,誠安里復興南路1段61 ~ 90號,大安區,大安區誠安里復興南路1段61號,25.032602100000002,121.5438699,553526924
住宅竊盜,1060603,07~09,南門里延平南路181 ~ 210號,中正區,中正區南門里延平南路181號,25.0342563,121.5075713,553626921
住宅竊盜,1060604,16~18,龍淵里辛亥路2段181 ~ 210號,大安區,大安區龍淵里辛亥路2段181號,25.0006459,121.5543294,552826827
住宅竊盜,1060606,07~09,天祿里士東路89巷16弄1 ~ 30號,士林區,士林區天祿里士東路89巷16弄1號,25.113221,121.52859199999999,555327051
住宅竊盜,1060606,07~09,蘭雅里5鄰士東路120巷22弄1 ~ 30號,士林區,士林區蘭雅里5鄰士東路120巷22弄1號,25.110451,121.530914,555327050
住宅竊盜,1060607,01~03,清江里崇仁路1段131巷10弄1 ~ 30號,北投區,北投區清江里崇仁路1段131巷10弄1號,25.1243503,121.50201489999999,555627050
住宅竊盜,1060607,10~12,南港路3段16巷1弄1 ~ 30號,南港區,南港區南港路3段16巷1弄1號,25.0549246,121.5923169,554026989
住宅竊盜,1060607,13~15,寧夏路91 ~ 120號,大同區,大同區寧夏路91號,25.0594258,121.5150007,554126981
住宅竊盜,1060608,16~18,雅祥里松信路31 ~ 60號,信義區,信義區雅祥里松信路31號,25.048266199999997,121.57219070000001,553926970
住宅竊盜,1060610,19~21,萬美里010鄰萬美街1段91 ~ 120號,文山區,文山區萬美里010鄰萬美街1段91號,25.001068,121.56631999999999,552826831
住宅竊盜,1060615,07~09,忠孝東路4段553巷16弄1 ~ 30號,信義區,信義區忠孝東路4段553巷16弄1號,25.0428407,121.563084,553826955
住宅竊盜,1060616,13~15,朱崙街31 ~ 60號,中山區,中山區朱崙街31號,25.0500866,121.54093329999999,553926967
住宅竊盜,1060616,19~21,龍江路120巷1 ~ 30號,中山區,中山區龍江路120巷1號,25.053706,121.54030700000001,554026975
住宅竊盜,1060617,01~03,南港路2段151 ~ 180號,南港區,南港區南港路2段151號,25.054443399999997,121.5956354,554026989
住宅竊盜,1060619,04~06,安康里松仁路121 ~ 150號,信義區,信義區安康里松仁路121號,25.034654500000002,121.5684156,553626935
住宅竊盜,1060619,07~09,錦安里潮州街91 ~ 120號,大安區,大安區錦安里潮州街91號,25.028923000000002,121.52671799999999,553526911
住宅竊盜,1060619,10~12,湖山里紗帽路1 ~ 30號,北投區,北投區湖山里紗帽路1號,25.1384823,121.5336301,555927057
住宅竊盜,1060619,13~15,陽明里光華路26巷1 ~ 30號,士林區,士林區陽明里光華路26巷1號,25.1373187,121.5420889,555927059
住宅竊盜,1060619,19~21,社新里延平北路6段261巷1 ~ 30號,士林區,士林區社新里延平北路6段261巷1號,25.08707260000001,121.50930559999999,554727024
住宅竊盜,1060619,22~24,景新里吳興街91 ~ 120號,信義區,信義區景新里吳興街91號,25.030587,121.56085130000001,553526923
住宅竊盜,1060620,13~15,延平里民生西路301 ~ 330號,大同區,大同區延平里民生西路301號,25.0570861,121.51287590000001,554126976
住宅竊盜,1060620,22~24,天津街61 ~ 90號,中山區,中山區天津街61號,25.05141810000001,121.52344879999998,554026966
住宅竊盜,1060621,07~09,星明里重慶北路2段97巷1 ~ 30號,大同區,大同區星明里重慶北路2段97巷1號,25.056642899999996,121.51399280000001,554126975
住宅竊盜,1060621,10~12,一德里中央北路4段481 ~ 510號,北投區,北投區一德里中央北路4段481號,25.1356027,121.4789163,555827045
住宅竊盜,1060622,04~06,隆和里延平北路3段66巷1 ~ 30號,大同區,大同區隆和里延平北路3段66巷1號,25.063516,121.51129399999999,554226988
住宅竊盜,1060623,13~15,雅祥里永吉路61 ~ 90號,信義區,信義區雅祥里永吉路61號,25.045847,121.5692588,553826964
住宅竊盜,1060624,01~03,天母里中山北路7段141巷1 ~ 30號,士林區,士林區天母里中山北路7段141巷1號,25.123201,121.53211259999999,555527056
住宅竊盜,1060624,04~06,吉林路301 ~ 330號,中山區,中山區吉林路301號,25.063222399999997,121.5304428,554226992
住宅竊盜,1060624,04~06,福興里自強街5巷137弄1 ~ 30號,北投區,北投區福興里自強街5巷137弄1號,25.112114899999998,121.51084579999998,555327047
住宅竊盜,1060624,13~15,福佳里美崙街62巷1 ~ 30號,士林區,士林區福佳里美崙街62巷1號,25.0907401,121.518201,554827030
住宅竊盜,1060624,19~21,清江里新市街24巷61 ~ 90號,北投區,北投區清江里新市街24巷61號,25.13105280000001,121.50335759999999,555727051
住宅竊盜,1060625,01~03,舊佳里19鄰文林路421 ~ 450號,士林區,士林區舊佳里19鄰文林路421號,25.0943574,121.5247993,554927036
住宅竊盜,1060625,22~24,龍江路394巷31 ~ 60號,中山區,中山區龍江路394巷31號,25.067313000000002,121.53978799999999,554327001
住宅竊盜,1060626,13~15,通化里通化街19巷1 ~ 30號,大安區,大安區通化里通化街19巷1號,25.031771,121.555613,553526925
住宅竊盜,1060626,22~24,萬年里公館街1 ~ 30號,文山區,文山區萬年里公館街1號,25.0048705,121.5384631,552926838
住宅竊盜,1060629,01~03,朝陽里重慶北路2段16巷1 ~ 30號,大同區,大同區朝陽里重慶北路2段16巷1號,25.054576,121.51408799999999,554026971
住宅竊盜,1060629,01~03,蘭興里文林路661巷39弄1 ~ 30號,士林區,士林區蘭興里文林路661巷39弄1號,25.1002368,121.52147790000001,555027041
住宅竊盜,1060629,19~21,民權東路6段241 ~ 270號,內湖區,內湖區民權東路6段241號,25.0669617,121.60037009999999,554327014
住宅竊盜,1060630,04~06,南京東路3段303巷7弄1 ~ 30號,松山區,松山區南京東路3段303巷7弄1號,25.0527655,121.5466358,554026974
住宅竊盜,1060630,10~12,安康路93巷4弄1 ~ 30號,內湖區,內湖區安康路93巷4弄1號,25.062981100000002,121.59717549999999,554227006
住宅竊盜,1060630,13~15,西寧南路90巷1 ~ 30號,萬華區,萬華區西寧南路90巷1號,25.042133800000002,121.5057635,553826941
住宅竊盜,1060701,13~15,大學里溫州街61 ~ 90號,大安區,大安區大學里溫州街61號,25.0206658,121.5330206,553326888
住宅竊盜,1060702,16~18,三玉里忠誠路2段181 ~ 210號,士林區,士林區三玉里忠誠路2段181號,25.1163995,121.5339561,555427054
住宅竊盜,1060703,10~12,八仙里大度路怡和巷3弄1 ~ 30號,北投區,北投區八仙里大度路怡和巷3弄1號,25.122053100000002,121.4960138,555527048
住宅竊盜,1060705,22~24,內湖路2段235巷1 ~ 30號,內湖區,內湖區內湖路2段235巷1號,25.0822638,121.56902579999999,554627031
住宅竊盜,1060706,13~15,和平西路3段51巷1 ~ 30號,萬華區,萬華區和平西路3段51巷1號,25.0353492,121.5029844,553626923
住宅竊盜,1060706,16~18,福德街309巷31 ~ 60號,南港區,南港區福德街309巷31號,25.039168300000004,121.5883363,553726952
住宅竊盜,1060707,01~03,天福里天母東路8巷1 ~ 30號,士林區,士林區天福里天母東路8巷1號,25.1169142,121.53188119999999,555427054
住宅竊盜,1060707,10~12,百福里福德街309巷31 ~ 60號,南港區,南港區百福里福德街309巷31號,25.039168300000004,121.5883363,553726952
住宅竊盜,1060707,13~15,民權東路3段106巷1 ~ 30號,松山區,松山區民權東路3段106巷1號,25.0618628,121.5449868,554226992
住宅竊盜,1060708,19~21,星雲街151 ~ 180號,內湖區,內湖區星雲街151號,25.080197100000003,121.5955652,554627034
住宅竊盜,1060708,22~24,龍福里南昌路1段51巷1 ~ 30號,中正區,中正區龍福里南昌路1段51巷1號,25.028452899999998,121.519474,553426908
住宅竊盜,1060710,10~12,中央里中央南路1段196巷1 ~ 30號,北投區,北投區中央里中央南路1段196巷1號,25.1330116,121.5016154,555827051
住宅竊盜,1060710,13~15,永倫里倫等街30巷1 ~ 30號,士林區,士林區永倫里倫等街30巷1號,25.0918582,121.501291,554927028
住宅竊盜,1060711,13~15,承德里後港街20巷1 ~ 30號,士林區,士林區承德里後港街20巷1號,25.0828354,121.5226344,554727022
住宅竊盜,1060712,10~12,龍坡里溫州街18巷1 ~ 30號,大安區,大安區龍坡里溫州街18巷1號,25.024784,121.533217,553426900
住宅竊盜,1060712,13~15,龍江路298巷1 ~ 30號,中山區,中山區龍江路298巷1號,25.0619402,121.53972979999999,554226991
住宅竊盜,1060714,01~03,三張里松智路39巷1 ~ 30號,信義區,信義區三張里松智路39巷1號,25.048006899999997,121.572348,553926969
住宅竊盜,1060714,19~21,三民路74巷1 ~ 30號,松山區,松山區三民路74巷1號,25.055870600000002,121.56395970000001,554126985
住宅竊盜,1060715,22~24,林森北路159巷31 ~ 60號,中山區,中山區林森北路159巷31號,25.051594,121.52644,554026967
住宅竊盜,1060715,22~24,樟林里002鄰光輝路30巷1 ~ 30號,文山區,文山區樟林里002鄰光輝路30巷1號,24.986178,121.55464099999999,552526772
住宅竊盜,1060715,22~24,松山路515巷2弄1 ~ 30號,信義區,信義區松山路515巷2弄1號,25.038339,121.57861000000001,553726947
住宅竊盜,1060716,13~15,內湖路2段451 ~ 480號,內湖區,內湖區內湖路2段451號,25.078647399999998,121.5791182,554627028
住宅竊盜,1060716,16~18,天壽里中山北路7段30巷16弄1 ~ 30號,士林區,士林區天壽里中山北路7段30巷16弄1號,25.102869100000003,121.52518719999999,555127044
住宅竊盜,1060717,07~09,福住里永康街23巷45弄1 ~ 30號,大安區,大安區福住里永康街23巷45弄1號,25.032239,121.5321,553526921
住宅竊盜,1060717,07~09,合成里21鄰忠孝東路6段269巷2弄1 ~ 30號,南港區,南港區合成里21鄰忠孝東路6段269巷2弄1號,25.049821899999998,121.5895875,553926977
住宅竊盜,1060717,07~09,環山路1段59巷10弄1 ~ 30號,內湖區,內湖區環山路1段59巷10弄1號,25.085569699999997,121.5680631,554727035
住宅竊盜,1060717,10~12,江南街121 ~ 150號,內湖區,內湖區江南街121號,25.076242699999998,121.57585309999999,554527024
住宅竊盜,1060719,22~24,林森北路107巷61 ~ 90號,中山區,中山區林森北路107巷61號,25.0499592,121.52710090000001,553926964
住宅竊盜,1060720,01~03,福安里延平北路7段106巷132弄1 ~ 30號,士林區,士林區福安里延平北路7段106巷132弄1號,25.105827899999998,121.4777337,555227036
住宅竊盜,1060720,10~12,河堤里金門街1 ~ 30號,中正區,中正區河堤里金門街1號,25.02302730000001,121.52479450000001,553326893
住宅竊盜,1060722,04~06,福華里承德路4段40巷121 ~ 150號,士林區,士林區福華里承德路4段40巷121號,25.0807939,121.5223739,554627019
住宅竊盜,1060722,04~06,三玉里德行東路129巷1 ~ 30號,士林區,士林區三玉里德行東路129巷1號,25.108443700000002,121.5292765,555227049
住宅竊盜,1060723,07~09,大理街160巷19弄1 ~ 30號,萬華區,萬華區大理街160巷19弄1號,25.0329717,121.49371940000002,553526914
住宅竊盜,1060723,22~24,中央里大業路280巷1 ~ 30號,北投區,北投區中央里大業路280巷1號,25.127794,121.499817,555627050
住宅竊盜,1060725,10~12,永春里松山路287巷1 ~ 30號,信義區,信義區永春里松山路287巷1號,25.042961,121.578271,553826959
住宅竊盜,1060725,13~15,泉源里登山路31 ~ 60號,北投區,北投區泉源里登山路31號,25.145885999999997,121.512731,556027051
住宅竊盜,1060725,16~18,福住里新生南路2段16巷1 ~ 30號,大安區,大安區福住里新生南路2段16巷1號,25.0325829,121.53206899999999,553526922
住宅竊盜,1060726,01~03,蘭雅里士東路46巷31 ~ 60號,士林區,士林區蘭雅里士東路46巷31號,25.1107312,121.5280088,555327050
住宅竊盜,1060727,04~06,五分街72巷1 ~ 30號,內湖區,內湖區五分街72巷1號,25.0664955,121.61630790000001,554327017
住宅竊盜,1060727,16~18,松友里松德路307巷1 ~ 30號,信義區,信義區松友里松德路307巷1號,25.030886199999998,121.57545879999999,553526927
住宅竊盜,1060731,10~12,延壽街91 ~ 120號,松山區,松山區延壽街91號,25.05724660000001,121.56663600000002,554126988
住宅竊盜,1060731,19~21,名山里5鄰雨聲街61 ~ 90號,士林區,士林區名山里5鄰雨聲街61號,25.1030402,121.52841770000002,555127045
住宅竊盜,1060801,22~24,信義路4段99巷31 ~ 60號,大安區,大安區信義路4段99巷31號,25.034874300000002,121.54713629999999,553626931
住宅竊盜,1060802,04~06,八德路4段601 ~ 630號,松山區,松山區八德路4段601號,25.050191199999997,121.5743656,553926975
住宅竊盜,1060804,07~09,中心里中和街1 ~ 30號,北投區,北投區中心里中和街1號,25.139096,121.50154199999999,555927050
住宅竊盜,1060804,10~12,福住里新生南路2段1 ~ 30號,大安區,大安區福住里新生南路2段1號,25.03331,121.532393,553626924
住宅竊盜,1060804,19~21,民權東路6段190巷75弄1 ~ 30號,內湖區,內湖區民權東路6段190巷75弄1號,25.068573699999998,121.5943791,554327016
住宅竊盜,1060806,04~06,民權東路6段206巷61 ~ 90號,內湖區,內湖區民權東路6段206巷61號,25.0665335,121.5956986,554327012
住宅竊盜,1060807,10~12,河堤里金門街1 ~ 30號,中正區,中正區河堤里金門街1號,25.02302730000001,121.52479450000001,553326893
住宅竊盜,1060807,10~12,民炤里仁愛路3段24巷1 ~ 30號,大安區,大安區民炤里仁愛路3段24巷1號,25.037759,121.53564140000002,553726936
住宅竊盜,1060807,22~24,承德里9鄰後港街20巷1 ~ 30號,士林區,士林區承德里9鄰後港街20巷1號,25.0828354,121.5226344,554727022
住宅竊盜,1060808,01~03,秀山里中和街502巷14弄1 ~ 30號,北投區,北投區秀山里中和街502巷14弄1號,25.147440600000003,121.49452600000001,556127046
住宅竊盜,1060808,04~06,中華路1段61 ~ 90號,萬華區,萬華區中華路1段61號,25.0475499,121.5106925,553926955
住宅竊盜,1060809,16~18,建功里延平北路1段31 ~ 60號,大同區,大同區建功里延平北路1段31號,25.05350450000001,121.5118997,554026968
住宅竊盜,1060810,22~24,民輝里建國南路1段31 ~ 60號,大安區,大安區民輝里建國南路1段31號,25.0416104,121.5373634,553726946
住宅竊盜,1060811,01~03,永樂里甘谷街1 ~ 30號,大同區,大同區永樂里甘谷街1號,25.0528961,121.51158740000001,554026967
住宅竊盜,1060811,19~21,三民路61 ~ 90號,松山區,松山區三民路61號,25.056361,121.56364779999998,554126986
住宅竊盜,1060812,19~21,玉成街225巷1 ~ 30號,南港區,南港區玉成街225巷1號,25.043738,121.5852162,553826962
住宅竊盜,1060814,01~03,民權東路6段296巷31 ~ 60號,內湖區,內湖區民權東路6段296巷31號,25.072064,121.60639029999999,554427024
住宅竊盜,1060814,07~09,萬興里017鄰指南路2段45巷24弄1 ~ 30號,文山區,文山區萬興里017鄰指南路2段45巷24弄1號,24.9879437,121.57426869999999,552626784
住宅竊盜,1060815,13~15,興昌里9鄰辛亥路4段77巷61 ~ 90號,文山區,文山區興昌里9鄰辛亥路4段77巷61號,25.008649,121.5607509,553026856
住宅竊盜,1060815,19~21,頂東里南昌路2段202巷1 ~ 30號,中正區,中正區頂東里南昌路2段202巷1號,25.0241662,121.5241553,553426896
住宅竊盜,1060815,19~21,延平里重慶北路2段91 ~ 120號,大同區,大同區延平里重慶北路2段91號,25.060039899999996,121.51332420000001,554126982
住宅竊盜,1060816,01~03,秀山里秀山路60巷1 ~ 30號,北投區,北投區秀山里秀山路60巷1號,25.1466086,121.4931114,556127046
住宅竊盜,1060817,13~15,德行里中山北路5段811巷1 ~ 30號,士林區,士林區德行里中山北路5段811巷1號,25.1021185,121.52540929999999,555127043
住宅竊盜,1060817,19~21,雅祥里基隆路1段35巷7弄31 ~ 60號,信義區,信義區雅祥里基隆路1段35巷7弄31號,25.0480402,121.57121049999999,553926969
住宅竊盜,1060818,04~06,天祿里士東路91巷26弄1 ~ 30號,士林區,士林區天祿里士東路91巷26弄1號,25.1132247,121.5299163,555327052
住宅竊盜,1060818,10~12,北安路825之1 ~ 30號,中山區,中山區北安路825之1號,25.084838,121.55651599999999,554727032
住宅竊盜,1060818,13~15,清江里崇仁路1段136巷1弄1 ~ 30號,北投區,北投區清江里崇仁路1段136巷1弄1號,25.1258802,121.5015483,555627050
住宅竊盜,1060818,16~18,新東街1 ~ 30號,松山區,松山區新東街1號,25.0574616,121.5659813,554126988
住宅竊盜,1060819,04~06,開明里西園街121 ~ 150號,北投區,北投區開明里西園街121號,25.1460884,121.5065338,556127049
住宅竊盜,1060819,13~15,天福里天母東路22巷1 ~ 30號,士林區,士林區天福里天母東路22巷1號,25.1169284,121.5326558,555427054
住宅竊盜,1060820,10~12,新中街1 ~ 30號,松山區,松山區新中街1號,25.060370000000002,121.56106299999999,554226993
住宅竊盜,1060821,01~03,明義里015鄰興隆路4段107巷1 ~ 30號,文山區,文山區明義里015鄰興隆路4段107巷1號,24.9875,121.56070600000001,552526779
住宅竊盜,1060821,19~21,大學里1鄰新生南路3段31 ~ 60號,大安區,大安區大學里1鄰新生南路3段31號,25.0202078,121.5337736,553326887
住宅竊盜,1060822,16~18,建泰里南京西路1 ~ 30號,大同區,大同區建泰里南京西路1號,25.052873,121.51867299999999,554026968
住宅竊盜,1060823,16~18,萬年里汀州路4段85巷6弄1 ~ 30號,文山區,文山區萬年里汀州路4段85巷6弄1號,25.0072174,121.5375466,553026846
住宅竊盜,1060824,13~15,龍淵里辛亥路2段171巷1 ~ 30號,大安區,大安區龍淵里辛亥路2段171巷1號,25.0218185,121.54120259999998,553326893
住宅竊盜,1060825,16~18,康寧路1段156巷20弄1 ~ 30號,內湖區,內湖區康寧路1段156巷20弄1號,25.0778423,121.5935807,554527030
住宅竊盜,1060825,22~24,水源里羅斯福路4段90巷1 ~ 30號,中正區,中正區水源里羅斯福路4段90巷1號,25.0139736,121.5349967,553126867
住宅竊盜,1060827,10~12,天祿里3鄰士東路91巷26弄1 ~ 30號,士林區,士林區天祿里3鄰士東路91巷26弄1號,25.1132247,121.5299163,555327052
住宅竊盜,1060830,07~09,住安里復興南路2段1 ~ 30號,大安區,大安區住安里復興南路2段1號,25.0330527,121.5433955,553626926
住宅竊盜,1060830,13~15,民炤里信義路3段31 ~ 60號,大安區,大安區民炤里信義路3段31號,25.033085999999997,121.54136499999998,553626925
住宅竊盜,1060830,16~18,大湖山莊街168巷1 ~ 30號,內湖區,內湖區大湖山莊街168巷1號,25.088518899999997,121.599354,554827046
住宅竊盜,1060901,13~15,研究院路2段61 ~ 90號,南港區,南港區研究院路2段61號,25.0442848,121.6160301,553826970
住宅竊盜,1060901,13~15,永昌里中華路2段443巷33弄1 ~ 30號,中正區,中正區永昌里中華路2段443巷33弄1號,25.026213000000002,121.5081392,553426899
住宅竊盜,1060901,13~15,光復北路121 ~ 150號,松山區,松山區光復北路121號,25.0521742,121.55714640000002,554026975
住宅竊盜,1060901,16~18,通安里12鄰樂利路5巷15弄1 ~ 30號,大安區,大安區通安里12鄰樂利路5巷15弄1號,25.0289924,121.5518379,553526916
住宅竊盜,1060902,22~24,漢口街2段31 ~ 60號,萬華區,萬華區漢口街2段31號,25.045825,121.505917,553826949
住宅竊盜,1060903,04~06,中華路2段504巷1 ~ 30號,萬華區,萬華區中華路2段504巷1號,25.025723,121.507797,553426897
住宅竊盜,1060903,10~12,芳和里樂業街61 ~ 90號,大安區,大安區芳和里樂業街61號,25.0221625,121.55073300000001,553326896
住宅竊盜,1060904,22~24,泰和里吳興街583巷4弄1 ~ 30號,信義區,信義區泰和里吳興街583巷4弄1號,25.022123999999998,121.569576,553326900
住宅竊盜,1060905,19~21,成都路133巷1 ~ 30號,萬華區,萬華區成都路133巷1號,25.043661,121.50368799999998,553826944
住宅竊盜,1060907,01~03,永樂里西寧北路61 ~ 90號,大同區,大同區永樂里西寧北路61號,25.0545819,121.50896000000002,554026970
住宅竊盜,1060909,13~15,民族東路541 ~ 570號,中山區,中山區民族東路541號,25.0672281,121.5431997,554327002
住宅竊盜,1060909,22~24,東門里徐州路18巷1 ~ 30號,中正區,中正區東門里徐州路18巷1號,25.0405375,121.5230909,553726940
住宅竊盜,1060910,04~06,天祿里士東路89巷1 ~ 30號,士林區,士林區天祿里士東路89巷1號,25.1125847,121.5285,555327051
住宅竊盜,1060911,19~21,八德路3段151 ~ 180號,松山區,松山區八德路3段151號,25.0481729,121.554998,553926966
住宅竊盜,1060911,19~21,明勝里承德路4段10巷91 ~ 120號,士林區,士林區明勝里承德路4段10巷91號,25.080057500000002,121.52180220000001,554627018
住宅竊盜,1060912,16~18,南港里重陽路301 ~ 330號,南港區,南港區南港里重陽路301號,25.0578275,121.60500220000002,554126998
住宅竊盜,1060912,22~24,松友里虎林街272巷1 ~ 30號,信義區,信義區松友里虎林街272巷1號,25.034974,121.57801200000002,553626938
住宅竊盜,1060913,10~12,大安路1段31巷1 ~ 30號,大安區,大安區大安路1段31巷1號,25.044141500000002,121.5463717,553826954
住宅竊盜,1060913,22~24,和平西路3段361 ~ 390號,萬華區,萬華區和平西路3段361號,25.0353454,121.4920643,553626920
住宅竊盜,1060915,19~21,新龍里2鄰瑞安街208巷24弄1 ~ 30號,大安區,大安區新龍里2鄰瑞安街208巷24弄1號,25.0288288,121.5403947,553526913
住宅竊盜,1060915,22~24,興福里22鄰景華路147巷1弄1 ~ 30號,文山區,文山區興福里22鄰景華路147巷1弄1號,24.9968061,121.5462773,552726811
住宅竊盜,1060917,19~21,林森北路119巷1 ~ 30號,中山區,中山區林森北路119巷1號,25.0508342,121.52525320000001,553926965
住宅竊盜,1060918,10~12,莒光路300巷6弄1 ~ 30號,萬華區,萬華區莒光路300巷6弄1號,25.0315648,121.49856329999999,553526912
住宅竊盜,1060919,10~12,合江街61巷1 ~ 30號,中山區,中山區合江街61巷1號,25.0573234,121.5392565,554126982
住宅竊盜,1060919,19~21,建民里明德路67巷1 ~ 30號,北投區,北投區建民里明德路67巷1號,25.1086403,121.51814979999999,555227046
住宅竊盜,1060919,19~21,全安里安和路2段209巷1 ~ 30號,大安區,大安區全安里安和路2段209巷1號,25.026293,121.5501976,553426908
住宅竊盜,1060920,13~15,永春里忠孝東路5段743巷21弄1 ~ 30號,信義區,信義區永春里忠孝東路5段743巷21弄1號,25.043731,121.58081100000001,553826961
住宅竊盜,1060921,04~06,長泰街211 ~ 240號,萬華區,萬華區長泰街211號,25.0216195,121.495433,553326882
住宅竊盜,1060922,13~15,尊賢里尊賢街224巷1 ~ 30號,北投區,北投區尊賢里尊賢街224巷1號,25.1159997,121.5078571,555427048
住宅竊盜,1060923,10~12,葫蘆里延平北路5段231巷1 ~ 30號,士林區,士林區葫蘆里延平北路5段231巷1號,25.0843907,121.5096947,554727021
住宅竊盜,1060926,13~15,莒光路241 ~ 270號,萬華區,萬華區莒光路241號,25.031117899999998,121.5007355,553526911
住宅竊盜,1060926,22~24,社新里社子街115巷1 ~ 30號,士林區,士林區社新里社子街115巷1號,25.088271399999996,121.5054868,554827025
住宅竊盜,1060928,01~03,內湖路2段29巷11弄1 ~ 30號,內湖區,內湖區內湖路2段29巷11弄1號,25.0822638,121.56902579999999,554627031
住宅竊盜,1060928,10~12,德惠街167巷1 ~ 30號,中山區,中山區德惠街167巷1號,25.067021399999998,121.53163529999999,554326999
住宅竊盜,1061001,01~03,內湖路2段29巷11弄1 ~ 30號,內湖區,內湖區內湖路2段29巷11弄1號,25.0822638,121.56902579999999,554627031
住宅竊盜,1061001,07~09,忠勤里中華路2段315巷1 ~ 30號,中正區,中正區忠勤里中華路2段315巷1號,25.0280189,121.5060909,553426903
住宅竊盜,1061001,16~18,八德路4段211 ~ 240號,松山區,松山區八德路4段211號,25.049001699999998,121.56395069999999,553926970
住宅竊盜,1061002,19~21,洛陽街31 ~ 60號,萬華區,萬華區洛陽街31號,25.0474,121.508467,553926954
住宅竊盜,1061003,01~03,樟新里013鄰木新路3段243巷4弄1 ~ 30號,文山區,文山區樟新里013鄰木新路3段243巷4弄1號,24.9826419,121.5648871,552426760
住宅竊盜,1061003,01~03,九如里研究院路4段181 ~ 210號,南港區,南港區九如里研究院路4段181號,25.016779999999997,121.58813,553226888
住宅竊盜,1061004,07~09,武成街63巷12弄1 ~ 30號,萬華區,萬華區武成街63巷12弄1號,25.018692899999998,121.49432420000001,553226873
住宅竊盜,1061004,07~09,永吉里永吉路443巷11弄1 ~ 30號,信義區,信義區永吉里永吉路443巷11弄1號,25.046757999999997,121.57844899999999,553926968
住宅竊盜,1061004,10~12,永吉里永吉路459巷7弄1 ~ 30號,信義區,信義區永吉里永吉路459巷7弄1號,25.046262,121.578892,553826967
住宅竊盜,1061004,10~12,大理街61 ~ 90號,萬華區,萬華區大理街61號,25.0345781,121.49985,553626920
住宅竊盜,1061005,01~03,蘭雅里中山北路6段290巷29弄1 ~ 30號,士林區,士林區蘭雅里中山北路6段290巷29弄1號,25.1092751,121.52689380000001,555227049
住宅竊盜,1061006,13~15,後港里承德路4段292巷11弄1 ~ 30號,士林區,士林區後港里承德路4段292巷11弄1號,25.089623800000002,121.5189683,554827029
住宅竊盜,1061006,16~18,永功里汀州路1段331 ~ 360號,中正區,中正區永功里汀州路1段331號,25.0263782,121.51379840000001,553426900
住宅竊盜,1061006,19~21,螢圃里12鄰牯嶺街121 ~ 150號,中正區,中正區螢圃里12鄰牯嶺街121號,25.024849,121.5191023,553426897
住宅竊盜,1061006,19~21,後港里承德路4段292巷11弄1 ~ 30號,士林區,士林區後港里承德路4段292巷11弄1號,25.089623800000002,121.5189683,554827029
住宅竊盜,1061007,16~18,裕民里東華街1段361 ~ 390號,北投區,北投區裕民里東華街1段361號,25.1096115,121.5191835,555227047
住宅竊盜,1061010,16~18,九如里研究院路3段61 ~ 90號,南港區,南港區九如里研究院路3段61號,25.034600100000002,121.61528329999999,553626946
住宅竊盜,1061011,07~09,螢雪里重慶南路3段146巷1 ~ 30號,中正區,中正區螢雪里重慶南路3段146巷1號,25.0238832,121.5164118,553326894
住宅竊盜,1061011,13~15,水源里汀州路3段181 ~ 210號,中正區,中正區水源里汀州路3段181號,25.0148666,121.5327379,553126870
住宅竊盜,1061012,19~21,蘭雅里1鄰德行東路129巷1弄1 ~ 30號,士林區,士林區蘭雅里1鄰德行東路129巷1弄1號,25.1081071,121.52876979999999,555227048
住宅竊盜,1061013,13~15,成功路2段426巷61 ~ 90號,內湖區,內湖區成功路2段426巷61號,25.070151100000004,121.5881399,554427017
住宅竊盜,1061014,16~18,五分里10鄰東湖路160巷10弄31 ~ 60號,內湖區,內湖區五分里10鄰東湖路160巷10弄31號,25.0672988,121.61631489999999,554327018
住宅竊盜,1061015,07~09,興華路91 ~ 120號,南港區,南港區興華路91號,25.0557633,121.60592140000001,554126994
住宅竊盜,1061015,10~12,龍雲里9鄰大安路2段91 ~ 120號,大安區,大安區龍雲里9鄰大安路2段91號,25.0289688,121.54578240000001,553526915
住宅竊盜,1061016,16~18,撫遠街421 ~ 450號,松山區,松山區撫遠街421號,25.067884,121.5666631,554327008
住宅竊盜,1061017,07~09,九如里研究院路3段68巷1 ~ 30號,南港區,南港區九如里研究院路3段68巷1號,25.037406100000002,121.6171794,553626953
住宅竊盜,1061017,10~12,成功路5段61 ~ 90號,內湖區,內湖區成功路5段61號,25.0741976,121.60606090000002,554527027
住宅竊盜,1061017,13~15,清江里崇仁路1段136巷1弄1 ~ 30號,北投區,北投區清江里崇仁路1段136巷1弄1號,25.1258802,121.5015483,555627050
住宅竊盜,1061017,13~15,車層里仁愛路4段345巷2弄1 ~ 30號,大安區,大安區車層里仁愛路4段345巷2弄1號,25.0379157,121.5542473,553726941
住宅竊盜,1061017,19~21,新東街31 ~ 60號,松山區,松山區新東街31號,25.0596443,121.5658942,554126993
住宅竊盜,1061018,07~09,安康路391 ~ 420號,內湖區,內湖區安康路391號,25.0682481,121.61593300000001,554327020
住宅竊盜,1061019,07~09,中山北路3段31 ~ 60號,中山區,中山區中山北路3段31號,25.063993399999998,121.5226647,554226991
住宅竊盜,1061019,13~15,翠山里中社路2段79巷1 ~ 30號,士林區,士林區翠山里中社路2段79巷1號,25.107585999999998,121.56495600000001,555227056
住宅竊盜,1061020,22~24,忠孝東路6段225巷1弄1 ~ 30號,南港區,南港區忠孝東路6段225巷1弄1號,25.049215300000004,121.588574,553926976
住宅竊盜,1061022,01~03,蘭雅里中山北路6段290巷7弄1 ~ 30號,士林區,士林區蘭雅里中山北路6段290巷7弄1號,25.110228399999997,121.52623100000001,555327049
住宅竊盜,1061023,22~24,鴻福里玉成街201巷8弄1 ~ 30號,南港區,南港區鴻福里玉成街201巷8弄1號,25.044694,121.5858158,553826965
住宅竊盜,1061025,16~18,三重里經貿二路151 ~ 180號,南港區,南港區三重里經貿二路151號,25.0598405,121.6155037,554127004
住宅竊盜,1061027,01~03,蘭雅里士東路120巷22弄1 ~ 30號,士林區,士林區蘭雅里士東路120巷22弄1號,25.11116860000001,121.5295953,555327051
住宅竊盜,1061027,04~06,週美里新明路380巷4弄1 ~ 30號,內湖區,內湖區週美里新明路380巷4弄1號,25.0553544,121.58013170000001,554026987
住宅竊盜,1061101,22~24,哈密街68巷1 ~ 30號,大同區,大同區哈密街68巷1號,25.073401399999998,121.5175419,554427007
住宅竊盜,1061102,13~15,社子里社中街156巷31 ~ 60號,士林區,士林區社子里社中街156巷31號,25.0915027,121.50939550000001,554827029
住宅竊盜,1061104,07~09,大龍街89巷1 ~ 30號,大同區,大同區大龍街89巷1號,25.0667895,121.51663799999999,554326995
住宅竊盜,1061104,13~15,聖山里德行東路241 ~ 270號,士林區,士林區聖山里德行東路241號,25.109818100000002,121.5340034,555227051
住宅竊盜,1061105,13~15,萬福里同德路31 ~ 60號,南港區,南港區萬福里同德路31號,25.0453697,121.5841225,553826966
住宅竊盜,1061105,16~18,寧安街9巷1 ~ 30號,松山區,松山區寧安街9巷1號,25.0497033,121.55480109999999,553926969
住宅竊盜,1061106,19~21,萬興里025鄰新光路1段121 ~ 150號,文山區,文山區萬興里025鄰新光路1段121號,24.9975179,121.5855176,552826822
住宅竊盜,1061107,04~06,聖山里忠誠路1段151 ~ 180號,士林區,士林區聖山里忠誠路1段151號,25.108599899999998,121.53058159999999,555227049
住宅竊盜,1061107,10~12,華興里002鄰試院路144巷4弄1 ~ 30號,文山區,文山區華興里002鄰試院路144巷4弄1號,24.9906695,121.547274,552626788
住宅竊盜,1061108,16~18,中庸里大同街211 ~ 240號,北投區,北投區中庸里大同街211號,25.1378439,121.49908570000001,555927050
住宅竊盜,1061110,07~09,信義路3段31 ~ 60號,大安區,大安區信義路3段31號,25.033085999999997,121.54136499999998,553626925
住宅竊盜,1061111,10~12,光武里市民大道4段31 ~ 60號,大安區,大安區光武里市民大道4段31號,25.0446509,121.5443093,553826955
住宅竊盜,1061113,10~12,建功里重慶北路1段83巷4弄31 ~ 60號,大同區,大同區建功里重慶北路1段83巷4弄31號,25.0526704,121.5141467,554026967
住宅竊盜,1061113,10~12,三玉里忠誠路2段1 ~ 30號,士林區,士林區三玉里忠誠路2段1號,25.108599899999998,121.53058159999999,555227049
住宅竊盜,1061115,07~09,內湖路1段47巷8弄31 ~ 60號,內湖區,內湖區內湖路1段47巷8弄31號,25.0876235,121.559281,554827036
住宅竊盜,1061115,16~18,南京東路5段123巷8弄1 ~ 30號,松山區,松山區南京東路5段123巷8弄1號,25.0535222,121.56106750000001,554026979
住宅竊盜,1061115,16~18,木柵里029鄰木柵路3段91 ~ 120號,文山區,文山區木柵里029鄰木柵路3段91號,24.988858,121.56778600000001,552626786
住宅竊盜,1061116,16~18,南京東路5段123巷6弄1 ~ 30號,松山區,松山區南京東路5段123巷6弄1號,25.051820499999998,121.5574435,554026974
住宅竊盜,1061117,01~03,稻香里稻香路73巷1 ~ 30號,北投區,北投區稻香里稻香路73巷1號,25.140586600000002,121.489309,555927047
住宅竊盜,1061117,07~09,住安里信義路4段31 ~ 60號,大安區,大安區住安里信義路4段31號,25.0335859,121.5447619,553626927
住宅竊盜,1061118,13~15,桃源里中央北路3段91 ~ 120號,北投區,北投區桃源里中央北路3段91號,25.137960999999997,121.4863369,555927047
住宅竊盜,1061119,04~06,明義里017鄰興隆路4段109巷31 ~ 60號,文山區,文山區明義里017鄰興隆路4段109巷31號,24.986871100000002,121.56149599999999,552526777
住宅竊盜,1061120,13~15,南京東路5段59巷29弄1 ~ 30號,松山區,松山區南京東路5段59巷29弄1號,25.0530873,121.55958970000002,554026978
住宅竊盜,1061121,10~12,中南里中南街42巷31 ~ 60號,南港區,南港區中南里中南街42巷31號,25.053367,121.61192700000001,554026990
住宅竊盜,1061121,10~12,成福路臨271 ~ 300號,南港區,南港區成福路臨271號,25.040856899999998,121.5884382,553726956
住宅竊盜,1061123,22~24,文盛里羅斯福路4段24巷1 ~ 30號,中正區,中正區文盛里羅斯福路4段24巷1號,25.0156032,121.5332942,553226872
住宅竊盜,1061125,10~12,石牌里致遠一路1段61 ~ 90號,北投區,北投區石牌里致遠一路1段61號,25.108694600000003,121.51597209999998,555227046
住宅竊盜,1061125,16~18,葫東里葫蘆街70巷1 ~ 30號,士林區,士林區葫東里葫蘆街70巷1號,25.0822984,121.5108945,554627018
住宅竊盜,1061126,16~18,新生北路3段1 ~ 30號,中山區,中山區新生北路3段1號,25.0628897,121.5281771,554226991
住宅竊盜,1061127,16~18,國業里虎林街232巷1 ~ 30號,信義區,信義區國業里虎林街232巷1號,25.036846,121.577446,553626943
住宅竊盜,1061128,16~18,東新街108巷1 ~ 30號,南港區,南港區東新街108巷1號,25.0463428,121.58791200000002,553826969
住宅竊盜,1061128,19~21,立農里立農街1段391 ~ 420號,北投區,北投區立農里立農街1段391號,25.1196151,121.508918,555527050
住宅竊盜,1061130,16~18,尊賢里尊賢街264巷31 ~ 60號,北投區,北投區尊賢里尊賢街264巷31號,25.117735800000002,121.5083604,555427049
住宅竊盜,1061201,07~09,康寧路1段47巷1 ~ 30號,內湖區,內湖區康寧路1段47巷1號,25.080489800000002,121.59190020000001,554627034
住宅竊盜,1061203,01~03,建民里文林北路60巷3弄1 ~ 30號,北投區,北投區建民里文林北路60巷3弄1號,25.1051535,121.51860500000001,555127044
住宅竊盜,1061205,10~12,景華里景興路96巷31 ~ 60號,文山區,文山區景華里景興路96巷31號,24.9945819,121.54290300000001,552726802
住宅竊盜,1061207,07~09,社子里社正路1 ~ 30號,士林區,士林區社子里社正路1號,25.0887891,121.5085497,554827026
住宅竊盜,1061210,16~18,中坡里福德街137巷11弄1 ~ 30號,信義區,信義區中坡里福德街137巷11弄1號,25.036913000000002,121.5833071,553626945
住宅竊盜,1061212,07~09,榮光里致遠一路2段31 ~ 60號,北投區,北投區榮光里致遠一路2段31號,25.111398100000002,121.51397890000001,555327047
住宅竊盜,1061213,10~12,興泰里辛亥路4段222巷19弄1 ~ 30號,文山區,文山區興泰里辛亥路4段222巷19弄1號,25.0022043,121.5553923,552926832
住宅竊盜,1061213,22~24,東新里興華路114巷1 ~ 30號,南港區,南港區東新里興華路114巷1號,25.056540899999998,121.6050446,554126995
住宅竊盜,1061214,10~12,華亭街31 ~ 60號,大同區,大同區華亭街31號,25.0526586,121.5133082,554026967
住宅竊盜,1061215,16~18,龍圖里13鄰瑞安街154巷31 ~ 60號,大安區,大安區龍圖里13鄰瑞安街154巷31號,25.0295646,121.5415341,553526916
住宅竊盜,1061216,22~24,永昌里汀州路1段181 ~ 210號,中正區,中正區永昌里汀州路1段181號,25.027128100000002,121.5110509,553426902
住宅竊盜,1061219,16~18,忠勤里中華路2段307巷1 ~ 30號,中正區,中正區忠勤里中華路2段307巷1號,25.028246799999998,121.5057199,553426904
住宅竊盜,1061220,22~24,廣州街91 ~ 120號,萬華區,萬華區廣州街91號,25.0366278,121.5039673,553626926
住宅竊盜,1061221,10~12,新明路380巷6弄1 ~ 30號,內湖區,內湖區新明路380巷6弄1號,25.055615200000002,121.57998710000001,554026988
住宅竊盜,1061222,22~24,河堤里汀州路2段211 ~ 240號,中正區,中正區河堤里汀州路2段211號,25.0236187,121.5226106,553326894
住宅竊盜,1061225,13~15,群賢里和平東路2段311巷34弄1 ~ 30號,大安區,大安區群賢里和平東路2段311巷34弄1號,25.024875299999998,121.54500559999998,553426903
住宅竊盜,1061228,13~15,玉成路1 ~ 30號,南港區,南港區玉成路1號,25.0519729,121.58121270000001,554026980
住宅竊盜,1061228,22~24,泰和里吳興街583巷4弄1 ~ 30號,信義區,信義區泰和里吳興街583巷4弄1號,25.022123999999998,121.569576,553326900
住宅竊盜,1061229,10~12,成功路四段61巷22弄1 ~ 30號,內湖區,內湖區成功路四段61巷22弄1號,25.0814533,121.5934247,554627035
住宅竊盜,1061230,16~18,西村里基隆路1段331 ~ 360號,信義區,信義區西村里基隆路1段331號,25.0344473,121.56057759999999,553626933
住宅竊盜,1061231,04~06,順興里013鄰木新路3段1 ~ 30號,文山區,文山區順興里013鄰木新路3段1號,24.9827919,121.564379,552426761
住宅竊盜,1070103,04~06,林興里水源路25巷1 ~ 30號,中正區,中正區林興里水源路25巷1號,25.0170994,121.52497220000001,553226875
住宅竊盜,1070103,07~09,東園街85巷2弄1 ~ 30號,萬華區,萬華區東園街85巷2弄1號,25.025836399999996,121.49676229999999,553426895
住宅竊盜,1070107,13~15,林泉里泉源路61 ~ 90號,北投區,北投區林泉里泉源路61號,25.141899,121.5140756,556027052
住宅竊盜,1070109,04~06,東園街35巷31 ~ 60號,萬華區,萬華區東園街35巷31號,25.0272329,121.49713090000002,553426899
住宅竊盜,1070109,19~21,漢口街2段109巷1 ~ 30號,萬華區,萬華區漢口街2段109巷1號,25.0466199,121.50478999999999,553926951
住宅竊盜,1070110,01~03,天母里士東路91巷31 ~ 60號,士林區,士林區天母里士東路91巷31號,25.113418799999998,121.5294137,555327052
住宅竊盜,1070111,01~03,長春里忠孝東路5段423巷31 ~ 60號,信義區,信義區長春里忠孝東路5段423巷31號,25.040768,121.578593,553726953
住宅竊盜,1070111,10~12,葫東里延平北路5段224巷31 ~ 60號,士林區,士林區葫東里延平北路5段224巷31號,25.0841247,121.50999979999999,554727021
住宅竊盜,1070114,01~03,蘭雅里忠誠路2段10巷1 ~ 30號,士林區,士林區蘭雅里忠誠路2段10巷1號,25.109068,121.530492,555227049
住宅竊盜,1070115,10~12,政大里015鄰政大二街260巷1 ~ 30號,文山區,文山區政大里015鄰政大二街260巷1號,24.988047899999998,121.58656440000001,552626787
住宅竊盜,1070115,16~18,長安西路271 ~ 300號,大同區,大同區長安西路271號,25.052158600000002,121.5106688,554026965
住宅竊盜,1070116,16~18,成功路2段312巷1 ~ 30號,內湖區,內湖區成功路2段312巷1號,25.067403100000003,121.5902728,554327013
住宅竊盜,1070120,13~15,文林里文林北路80巷59弄1 ~ 30號,北投區,北投區文林里文林北路80巷59弄1號,25.1063532,121.5193553,555227045
住宅竊盜,1070120,16~18,景勤里吳興街220巷1 ~ 30號,信義區,信義區景勤里吳興街220巷1號,25.027688,121.5629153,553426915
