district,address,boomTime,lat,lon,state_code
大同區,大龍街85巷,106-1-3,25.066423399999998,121.51658159999998,554326994
大同區,環河北路1段87號,106-1-4,25.053022,121.5075455,554026966
大同區,鄭州路與西寧北路口,106-1-9,25.050385000000002,121.50978640000001,553926961
大同區,南京西路302巷,106-1-14,25.053601,121.513571,554026969
大同區,承德路3段32號,106-1-14,25.064460500000003,121.51806270000002,554226991
大同區,延平北路1段與南京西路口,106-1-6,25.0670589,121.511082,554326994
大同區,長安西路與塔城街口,106-1-13,25.050385000000002,121.50978640000001,553926961
大同區,鄭州路與塔城街口,106-2-8,25.050385000000002,121.50978640000001,553926961
大同區,重慶北路2段227號與重慶北路2段口,106-2-11,25.0616167,121.51376299999998,554226985
大同區,酒泉街與重慶北路3段口,106-2-14,25.0721299,121.51406259999999,554427004
大同區,重慶北路2段與民權西路口,106-1-3,25.0621449,121.51338700000001,554226986
大同區,承德路1段與鄭州路1段口,106-1-3,25.0633359,121.51858200000001,554226989
大同區,延平北路3段69號,106-1-4,25.066313,121.511121,554326993
大同區,環河北路2段18標高速公路下方,106-1-7,24.1752407,120.63048229999998,534615458
大同區,鄭州路131號北門捷運站2號出口,106-1-9,25.049062600000003,121.51021999999999,553926958
大同區,延平北路2段272巷46號,106-1-17,25.062040600000003,121.5097989,554226985
大同區,承德路3段221號,106-1-18,25.070284,121.51873400000001,554427002
大同區,重慶北路2段64巷,106-1-7,25.055707199999997,121.5129341,554126973
大同區,西寧北路與鄭州路口,106-1-9,25.050385000000002,121.50978640000001,553926961
大同區,市民大道1段京站停車場入口前,106-1-12,25.0490476,121.51810990000001,553926960
大同區,承德路3段206號,106-1-13,25.0702942,121.51817120000001,554427002
大同區,南京西路與太原路口,106-1-9,25.053588100000002,121.5160989,554026969
大同區,民生西路與承德路2段口,106-1-4,25.0550237,121.51801809999999,554026973
大同區,延平北路2段與保安街口,106-1-10,25.058906600000004,121.5115635,554126979
大同區,延平北路4段282巷,106-5-19,25.0770513,121.51074640000002,554527011
大同區,民權西路104號,106-3-6,25.062716899999998,121.51743229999998,554226988
大同區,承德路3段與民族西路口,106-4-5,25.068799,121.51346399999998,554326998
大同區,通河西街1段明倫高中後方堤外便道,106-2-16,25.076246100000002,121.5193385,554527011
大同區,鄭州路與塔城街口,106-2-6,25.050385000000002,121.50978640000001,553926961
大同區,鄭州路109號,106-2-10,25.050268399999997,121.5112996,553926961
大同區,承德路3段45號,106-2-13,25.064588,121.5186045,554226992
大同區,民權西路184巷26號與民權西路184巷口,106-2-17,25.0618,121.51446999999999,554226985
大同區,環河北路1段與鄭州路口,106-1-4,25.0596283,121.5085172,554126980
大同區,重慶北路2段與南京西路口,106-1-3,25.054553,121.511596,554026970
大同區,南京西路155巷,106-1-9,25.0546275,121.51341880000001,554026971
大同區,延平北路3段56號與延平北路3段口,106-1-14,25.0673044,121.51105120000001,554326995
大同區,承德路3段與民權西路口,106-1-22,25.0629867,121.5182325,554226989
大同區,鄭州路145號,106-2-8,25.050969600000002,121.5093209,553926962
大同區,民權西路266號,106-9-4,25.0627805,121.51214850000001,554226987
大同區,延平北路2段與保安街口,106-9-11,25.058906600000004,121.5115635,554126979
大同區,延平北路2段272巷與安西街口,106-1-12,25.0621,121.511175,554226985
大同區,忠孝西路1段與環河北路1段口,106-4-20,25.0836033,121.50688899999999,554727019
大同區,南京西路310號,106-4-12,25.0538625,121.51331689999999,554026969
大同區,迪化街2段與酒泉街口,106-4-23,25.0703643,121.51165220000001,554427000
大同區,環河北路1段與大稻埕堤外便道口堤外道路,106-4-23,25.054116,121.507081,554026968
大同區,民權西路與蘭州街口,106-2-14,25.062889000000002,121.5147047,554226988
大同區,南京西路107巷口,106-2-20,25.0545663,121.51567220000001,554026971
大同區,延平北路3段與昌吉街口,106-2-21,25.0682622,121.51089979999999,554326996
大同區,鄭州路145號中興醫院急診室前,106-2-12,25.0511327,121.50941940000001,554026962
大同區,民族西路182巷,106-4-20,25.068045,121.51485829999999,554326997
大同區,民權西路108號,106-4-22,25.062680800000003,121.5170959,554226988
大同區,承德路2段與平陽街口口,106-2-27,25.0551611,121.5165423,554026973
大同區,錦西街88號,106-2-8,25.060173000000002,121.5189561,554226983
大同區,民生西路321號,106-3-7,25.057061899999997,121.5120162,554126975
大同區,路與塔城街口(南京西路259號附近),106-2-2,25.053387,121.50979299999999,554026967
大同區,承德路3段與民族西路口,106-2-1,25.068799,121.51346399999998,554326998
大同區,赤峰街41巷,106-2-4,25.0548665,121.52000079999999,554026973
大同區,忠孝西路2段與塔城街口,106-2-10,25.0476299,121.5127104,553926955
大同區,西寧北路1巷與西寧北路口,106-2-11,25.0492189,121.5077956,553926958
大同區,民生西路與延平北路2段口,106-2-12,25.056957,121.5115836,554126975
大同區,民權西路與承德路3段口,106-2-12,25.0638424,121.5181676,554226990
大同區,機車道往三重,106-2-15,25.063710399999998,121.5065347,554226987
大同區,民族西路與大龍街口,106-3-7,25.063097,121.51653999999999,554226988
大同區,承德路3段與錦西街口,106-3-21,25.060231299999998,121.51878980000001,554226983
大同區,酒泉街138號,106-3-20,25.0720392,121.512413,554427003
大同區,錦西街與興城街口,106-1-21,25.0601497,121.51732849999999,554226983
大同區,民族西路與承德路3段口,106-1-22,25.068537399999997,121.51847250000002,554326999
大同區,五原路與太原路口,106-1-30,25.0566869,121.5169828,554126976
大同區,民族西路72號,106-2-2,25.0684133,121.5179406,554326998
大同區,延平北路2段60巷,106-3-25,25.0554237,121.51131840000001,554026972
大同區,歸綏街267號,106-4-2,25.058334,121.51,554126978
大同區,民權西路127號,106-5-2,25.0631125,121.51726670000001,554226989
大同區,重慶北路1段62號,106-2-18,25.0521814,121.51385990000001,554026966
大同區,鄭州路與西寧北路口,106-2-19,25.050385000000002,121.50978640000001,553926961
大同區,民權西路與台北橋口機車道往三重,106-2-20,25.063710399999998,121.5065347,554226987
大同區,台北橋往台北方向,106-1-26,25.063710399999998,121.5065347,554226987
大同區,承德路2段與南京西路口,106-1-26,25.053328,121.51763229999999,554026969
大同區,西寧北路與長安西路口,106-2-2,25.0526962,121.50863429999998,554026966
大同區,環河北路1段與南京西路口堤外便道,106-5-9,25.0519062,121.50673049999999,554026963
大同區,民權西路與蘭州街口,106-5-14,25.062889000000002,121.5147047,554226988
大同區,鄭州路與延平北路1段口,106-5-16,25.048754000000002,121.510948,553926957
大同區,西寧北路與長安西路口,106-2-11,25.0526962,121.50863429999998,554026966
大同區,市民大道1段與承德路1段口,106-2-15,25.0490476,121.51810990000001,553926960
大同區,承德路2段與民生西路口,106-2-22,25.055966,121.51839009999999,554126975
大同區,重慶北路3段152巷,106-3-2,25.068131,121.5127989,554326997
大同區,環河北路2段7號旁,106-3-3,25.063740799999998,121.50903459999999,554226988
大同區,承德路1段75號,106-3-13,25.0520803,121.517762,554026966
大同區,民生西路292號,106-3-14,25.056724,121.5126045,554126975
大同區,延平北路2段與民權西路口,106-3-20,25.0627882,121.51122050000001,554226987
大同區,鄭州路與環河北路1段口,106-2-5,25.0507942,121.50675919999999,553926961
大同區,重慶北路2段與民生西路口,106-2-6,25.0569098,121.51359790000001,554126976
大同區,延平北路2段79號,106-2-7,25.0560451,121.5117644,554126973
大同區,承德路2段與民權西路口,106-2-8,25.0629867,121.5182325,554226989
大同區,忠孝西路2段與塔城街口,106-2-6,25.0476299,121.5127104,553926955
大同區,延平北路3段61巷口,106-2-14,25.063516,121.51129399999999,554226988
大同區,民樂街95號,106-2-14,25.056527,121.5109828,554126974
大同區,環河北路1段與鄭州路口,106-1-27,25.0596283,121.5085172,554126980
大同區,歸綏街194巷,106-2-3,25.0579283,121.51195919999999,554126977
大同區,民權西路194號,106-2-5,25.0627713,121.5144137,554226987
大同區,鄭州路與鄭州路29巷口,106-2-11,25.049597,121.514177,553926960
大同區,延平北路2段276號,106-2-22,25.0622533,121.5111885,554226986
大同區,重慶北路3段236巷,106-2-9,25.0705484,121.5127784,554427001
大同區,鄭州路與西寧北路口,106-2-16,25.050385000000002,121.50978640000001,553926961
大同區,承德路3段與庫倫街口,106-2-21,25.069937799999998,121.5182537,554427001
大同區,延平北路4段179巷與迪化街2段口,106-2-19,25.0736639,121.511536,554427006
大同區,承德路2段209號,106-3-14,25.0632571,121.5180676,554226989
大同區,安西街與延平北路2段272巷口口,106-3-14,25.0621,121.511175,554226985
大同區,長安西路與塔城街口,106-2-15,25.050385000000002,121.50978640000001,553926961
大同區,長安西路與西寧北路口,106-3-1,25.051480899999998,121.5144918,554026964
大同區,民權西路台北橋機車道,106-2-11,25.063710399999998,121.5065347,554226987
大同區,忠孝西路2段與塔城街口,106-2-15,25.0476299,121.5127104,553926955
大同區,鄭州路3號,106-2-17,25.049045899999996,121.51611229999999,553926959
大同區,長安西路218號與長安西路口,106-4-6,25.051335899999998,121.5147965,554026964
大同區,塔城街北門站2號出口,106-2-20,25.049349,121.5102908,553926959
大同區,延平北路2段255-1號,106-2-27,25.062618,121.51144,554226986
大同區,民權西路123號,106-4-13,25.063105,121.5173794,554226989
大同區,錦西街46號,106-4-13,25.0602383,121.5202,554226984
大同區,延平北路4段93-3號,106-4-13,25.0710036,121.51096570000001,554427001
大同區,歸綏街與萬全街103巷口口,106-4-20,25.057848899999996,121.520473,554126979
大同區,環河北路1段與民生西路口,106-2-20,25.0568782,121.5082932,554126974
大同區,民權西路與大龍街口口,106-2-22,25.062972199999997,121.5166608,554226988
大同區,西寧北路32號,106-3-1,25.051222699999997,121.50821770000002,554026962
大同區,酒泉街136號,106-3-2,25.071937899999998,121.5124624,554427003
大同區,重慶北路1段與長安西路口,106-2-13,25.051622100000003,121.5138878,554026964
大同區,鄭州路與塔城街口,106-2-15,25.050385000000002,121.50978640000001,553926961
大同區,民權西路254號,106-2-25,25.0627249,121.5124189,554226987
大同區,承德路3段277號,106-2-27,25.072865,121.519356,554427006
大同區,台北橋機車道東往西23號燈桿,106-3-3,25.063710399999998,121.5065347,554226987
大同區,鄭州路與西寧北路口,106-3-4,25.050385000000002,121.50978640000001,553926961
大同區,民權西路185巷與民權西路口,106-3-17,25.062904999999997,121.519319,554226989
大同區,鄭州路與承德路1段口,106-3-22,25.0491806,121.5144925,553926959
大同區,民生西路229號,106-3-30,25.0572526,121.5158456,554126977
大同區,承德路3段48號,106-2-9,25.064911399999996,121.51807859999998,554326992
大同區,民權西路與蘭州街口,106-3-14,25.062889000000002,121.5147047,554226988
大同區,承德路3段與民權西路口,106-2-11,25.0629867,121.5182325,554226989
大同區,延平北路4段16號,106-1-25,25.0691508,121.5108051,554326998
大同區,鄭州路與西寧北路口,106-2-13,25.050385000000002,121.50978640000001,553926961
大同區,鄭州路145號,106-2-17,25.050969600000002,121.5093209,553926962
大同區,長安西路80號,106-4-5,25.0503298,121.5191472,553926963
大同區,延平北路1段與長安西路口,106-2-27,25.052055499999998,121.51188159999998,554026965
大同區,環河北路2段145巷,106-3-3,25.0672062,121.50918329999999,554326994
大同區,承德路2段與南京西路口,106-3-8,25.053328,121.51763229999999,554026969
大同區,鄭州路與塔城街口,106-3-17,25.050385000000002,121.50978640000001,553926961
大同區,長安西路70號建成國中地下停車場出入口,106-3-22,25.051576999999998,121.51988130000001,554026966
大同區,民樂街61-1號,106-4-6,25.0551872,121.5109856,554026971
大同區,鄭州路21巷,106-4-6,25.049573100000003,121.5145662,553926960
大同區,民族西路與承德路3段口,106-4-11,25.068537399999997,121.51847250000002,554326999
大同區,重慶北路1段與民生西路口,106-4-17,25.056385000000002,121.51168,554126974
大同區,延平北路4段與酒泉街口,106-3-18,25.0719201,121.51094259999999,554427003
大同區,延平北路3段與民權西路口,106-3-19,25.0631105,121.5112207,554226987
大同區,延平北路2段與民權西路口口,106-3-24,25.0627882,121.51122050000001,554226987
大同區,承德路3段與酒泉街口,106-3-25,25.069937799999998,121.5182537,554427001
大同區,承德路2段77號,106-3-30,25.055975699999998,121.51841709999998,554126975
大同區,環河北路2段與民權西路口,106-3-31,25.070524399999996,121.5091986,554427000
大同區,延平北路2段與涼州街口,106-4-11,25.060562,121.511509,554226982
大同區,延平北路3段26號,106-6-6,25.064199,121.511045,554226989
大同區,重慶北路3段242號,106-6-14,25.0707037,121.51352379999999,554427001
大同區,重慶北路1段30號,106-7-4,25.050928600000002,121.5135668,553926963
大同區,敦煌路與環河北路2段口污水處理廠前,106-7-11,25.0724189,121.5100679,554427003
大同區,長安西路172巷,106-7-12,25.050628600000003,121.5159828,553926963
大同區,延平北路2段與保安街口,106-8-28,25.058906600000004,121.5115635,554126979
大同區,重慶北路3段與重慶北路3段口往南機車引道,106-4-10,25.075350699999998,121.51355330000001,554527009
大同區,重慶北路2段64巷,106-3-1,25.055707199999997,121.5129341,554126973
大同區,延平北路2段與民權西路口,106-3-3,25.0627882,121.51122050000001,554226987
大同區,承德路3段與庫倫街口,106-3-12,25.069937799999998,121.5182537,554427001
大同區,重慶北路2段與民生西路口,106-3-15,25.0569098,121.51359790000001,554126976
大同區,西寧北路1巷,106-3-22,25.0491178,121.5083265,553926958
大同區,民生西路與迪化街1段口,106-7-12,25.056834,121.509752,554126975
大同區,寧夏路與歸綏街口,106-3-8,25.058170999999998,121.50856499999999,554126977
大同區,承德路3段與民權西路口,106-3-14,25.0629867,121.5182325,554226989
大同區,台北橋與台北橋口機車道往台北,106-3-14,25.063710399999998,121.5065347,554226987
大同區,台北橋機車道往三重,106-3-16,25.063710399999998,121.5065347,554226987
大同區,鄭州路與塔城街口,106-3-20,25.050385000000002,121.50978640000001,553926961
大同區,延平北路4段與酒泉街口,106-3-22,25.0719201,121.51094259999999,554427003
大同區,市民大道1段與市民大道1段口地下街Y3出口前,106-3-22,25.0486673,121.51429089999999,553926958
大同區,環河北路2段與敦煌路口往北近敦煌路,106-3-25,25.0763833,121.5130478,554527010
大同區,承德路3段與昌吉街口,106-3-25,25.0660079,121.51815330000001,554326994
大同區,大龍街與民族西路口,106-3-25,25.068735800000002,121.5157226,554326998
大同區,重慶北路2段與長安西路口,106-3-27,25.059375199999998,121.5134561,554126980
大同區,承德路3段與酒泉街口,106-4-10,25.069937799999998,121.5182537,554427001
大同區,台北橋機車道往三重,106-4-24,25.063710399999998,121.5065347,554226987
大同區,民生西路72號,106-5-25,25.057507,121.5204723,554126978
大同區,環河北路1段與鄭州路口,106-9-19,25.0596283,121.5085172,554126980
大同區,環河北路1段與忠孝西路2段口,106-4-10,25.0836033,121.50688899999999,554727019
大同區,南京西路與太原路口,106-4-22,25.053588100000002,121.5160989,554026969
大同區,重慶北路2段與涼州街口,106-4-23,25.060890899999997,121.51486940000001,554226984
大同區,環河北路2段與昌吉街口,106-5-5,25.0658326,121.5088817,554326992
大同區,民生西路308號,106-5-11,25.0568491,121.5120788,554126975
大同區,安西街28號與安西街口,106-7-14,25.061094,121.50981200000001,554226983
大同區,承德路3段60號,106-7-18,25.065329600000002,121.51810220000002,554326993
大同區,鄭州路與西寧北路口,106-7-23,25.050385000000002,121.50978640000001,553926961
大同區,民生西路與迪化街1段口,106-7-26,25.056834,121.509752,554126975
大同區,歸綏街237號,106-8-2,25.058361899999998,121.510899,554126978
大同區,台北橋機車道上橋處(往三重),106-8-7,25.063710399999998,121.5065347,554226987
大同區,延平北路3段18巷20號與民權西路245巷口,106-8-9,25.063516,121.51129399999999,554226988
大同區,長安西路與貴德街口,106-8-15,25.0521519,121.5079882,554026964
大同區,延平北路2段272巷與延平北路2段口,106-8-27,25.0621,121.511175,554226985
大同區,承德路1段與市民大道1段口,106-9-1,25.050385000000002,121.50978640000001,553926961
大同區,承德路2段與錦西街口,106-9-4,25.060231299999998,121.51878980000001,554226983
大同區,通河西街1段(明倫高中後方河堤便道),106-9-15,25.076246100000002,121.5193385,554527011
大同區,延平北路1段與延平北路1段66巷口,106-7-10,25.051573,121.5119088,554026964
大同區,承德路2段31號,106-8-17,25.0538938,121.5180722,554026970
大同區,民生西路423巷與環河北路1段口,106-8-25,25.0510056,121.50666059999999,553926961
大同區,鄭州路與環河北路1段口,106-11-3,25.0507942,121.50675919999999,553926961
大同區,環河北路1段與長安西路口,106-8-31,25.0524323,121.50726609999998,554026965
大同區,鄭州路139號與鄭州路143巷口,106-8-23,25.050385000000002,121.50978640000001,553926961
大同區,鄭州路與西寧北路口,106-8-25,25.050385000000002,121.50978640000001,553926961
大同區,錦西街80號與雙連街口,106-8-20,25.060271,121.52028899999999,554226984
大同區,台北橋往三重方向(機車道)橋中,106-9-5,25.063710399999998,121.5065347,554226987
大同區,鄭州路與環河北路1段口,106-9-11,25.0507942,121.50675919999999,553926961
大同區,台北橋機車道西往東方向,106-9-12,25.063710399999998,121.5065347,554226987
大同區,延平北路2段266號,106-8-19,25.061297,121.5110848,554226984
大同區,寧夏路與涼州街口,106-8-20,25.060890899999997,121.51486940000001,554226984
大同區,承德路3段189號,106-8-7,25.063414399999996,121.5185008,554226989
大同區,承德路2段與南京西路口,106-9-17,25.053328,121.51763229999999,554026969
大同區,重慶北路1段與華陰街口,106-9-22,25.050481,121.5144612,553926962
大同區,承德路2段與民生西路口,106-8-20,25.055966,121.51839009999999,554126975
大同區,承德路3段232號與庫倫街口,106-9-24,25.072329,121.5185723,554427005
大同區,承德路3段336號明倫高中後方,106-9-26,25.076246100000002,121.5193385,554527011
大同區,雙連街與錦西街口,106-9-27,25.060271,121.52028899999999,554226984
大同區,民權西路與蘭州街口,106-9-30,25.062889000000002,121.5147047,554226988
大同區,承德路2段與錦西街口,106-10-14,25.060231299999998,121.51878980000001,554226983
大同區,承德路2段221號與錦西街口,106-10-20,25.062904999999997,121.519319,554226989
大同區,承德路3段8巷與民權西路133巷口,106-10-21,25.066349,121.517923,554326995
大同區,民權西路88號與承德路2段口,106-11-4,25.062472,121.5185889,554226988
大同區,民生西路426號與西寧北路口,106-11-14,25.0556299,121.5090418,554126972
大同區,延平北路2段與南京西路口,106-8-26,25.054845999999998,121.511773,554026971
大同區,承德路2段3號,106-11-9,25.0550237,121.51801809999999,554026973
大同區,環河北路1段169號,106-11-10,25.059041,121.508909,554126979
大同區,哈密街83巷與哈密街口,106-11-10,25.074081500000002,121.51915079999999,554527008
大同區,忠孝西路2段與塔城街口,106-7-25,25.0476299,121.5127104,553926955
大同區,長安西路與長安西路138巷口,106-7-27,25.050131,121.51813500000002,553926962
大同區,民權西路與民權西路133巷口,106-8-7,25.0631247,121.5169835,554226989
大同區,重慶北路3段252巷與重慶北路3段236巷45弄口,106-8-7,25.0711145,121.5135085,554427002
大同區,延平北路2段與民權西路口,106-8-9,25.0627882,121.51122050000001,554226987
大同區,西寧北路與忠孝西路2段口,106-8-12,25.0526962,121.50863429999998,554026966
大同區,重慶北路3段369號,106-8-15,25.075582,121.514132,554527009
大同區,民樂街與民生西路口,106-8-15,25.0569336,121.5108371,554126975
大同區,延平北路4段與迪化街2段268巷口,106-8-9,25.055104699999998,121.5100372,554026971
大同區,鄭州路與環河北路1段口(堤外便道),106-8-14,25.059041,121.508909,554126979
大同區,重慶北路3段152巷,106-8-15,25.068131,121.5127989,554326997
大同區,環河北路1段與鄭州路口(三號水門),106-8-21,25.050823100000002,121.50663359999999,553926961
大同區,市民大道1段209號轉運站,106-8-23,25.0488533,121.5187085,553926959
大同區,環河北路2段137號與環河北路2段口,106-12-14,25.067038800000002,121.50917749999999,554326994
大同區,鄭州路145號,106-12-31,25.050969600000002,121.5093209,553926962
大同區,敦煌路21巷,106-12-31,25.0767913,121.51655729999999,554527012
大同區,民權西路238號,106-7-7,25.062775199999997,121.51288020000001,554226987
大同區,承德路3段225巷口,106-7-24,25.0701746,121.5190774,554427002
大同區,市民大道1段209號,106-8-5,25.049116,121.5185352,553926960
大同區,重慶北路1段與歸綏街口,106-8-5,25.0580364,121.5133116,554126978
大同區,長安西路84號,106-8-12,25.0503367,121.5191331,553926963
大同區,長安西路35號,106-8-19,25.050401100000002,121.5196949,553926963
大同區,民生西路184號,106-9-1,25.057095999999998,121.517248,554126977
大同區,民族西路259號,106-8-11,25.0688138,121.5114413,554326998
大同區,延平北路3段與民權西路口,106-8-26,25.0631105,121.5112207,554226987
大同區,市民高架道下重慶北路匝道,106-7-13,25.078552399999996,121.5143787,554627014
大同區,忠孝西路1段與鄭州路83巷口,106-7-24,25.0477266,121.51216399999998,553926955
大同區,承德路3段176巷前,106-9-14,25.0691393,121.517624,554326999
大同區,長安西路與塔城街口,106-9-16,25.050385000000002,121.50978640000001,553926961
大同區,承德路3段與敦煌路口,106-8-20,25.070762300000002,121.518518,554427002
大同區,承德路2段與民生西路口,106-8-27,25.055966,121.51839009999999,554126975
大同區,庫倫街11號,106-5-10,25.072062399999997,121.5172437,554427004
大同區,塔城街與鄭州路口,106-5-15,25.050385000000002,121.50978640000001,553926961
大同區,承德路2段168號,106-5-15,25.0632571,121.5180676,554226989
大同區,環河北路1段與南京西路口,106-5-17,25.053735600000003,121.50750049999999,554026968
大同區,環河北路1段63號之1,106-6-2,25.052557,121.5074419,554026965
大同區,市民大道1段R1出口前,106-9-20,25.0486673,121.51429089999999,553926958
大同區,台北橋往三重機車道,106-10-29,25.063710399999998,121.5065347,554226987
大同區,延平北路2段148號與延平北路2段口,106-11-6,25.068479999999997,121.51075700000001,554326997
大同區,重慶北路3段137巷與民族西路182巷口,106-4-28,25.0699509,121.514055,554427000
大同區,承德路3段99巷口,106-5-3,25.066460600000003,121.5187554,554326995
大同區,西寧北路1巷,106-4-27,25.0491178,121.5083265,553926958
大同區,台北橋機車道往三重方向,106-4-21,25.063710399999998,121.5065347,554226987
大同區,重慶北路2段與保安街口,106-6-11,25.059375199999998,121.5134561,554126980
大同區,承德路3段22號與承德路3段口,106-7-11,25.0641393,121.518056,554226991
大同區,延平北路2段88號,106-7-18,25.056204100000002,121.5114614,554126974
大同區,重慶北路3段236巷與重慶北路3段236巷45弄口,106-7-23,25.0706323,121.5118242,554427001
大同區,南京西路153號,106-7-30,25.0541428,121.5135594,554026970
大同區,重慶北路2段與民生西路口,106-4-27,25.0569098,121.51359790000001,554126976
大同區,重慶北路1段47-1號,106-4-28,25.050952,121.51395500000001,553926963
大同區,鄭州路與西寧北路口,106-4-29,25.050385000000002,121.50978640000001,553926961
大同區,市民高架道往西第62號燈桿處,106-5-2,25.0491806,121.5144925,553926959
大同區,昌吉街與大龍街口,106-5-3,25.0712997,121.5159438,554427003
大同區,民權西路262號,106-5-3,25.062735,121.512169,554226987
大同區,民權西路93號,106-5-10,25.063077800000002,121.5187926,554226989
大同區,長安西路與華亭街口,106-6-3,25.053906299999998,121.5131365,554026969
大同區,西寧北路與鄭州路口,106-5-21,25.050385000000002,121.50978640000001,553926961
大同區,承德路1段與長安西路口,106-5-23,25.050904199999998,121.51696609999999,553926963
大同區,南京西路36號,106-5-25,25.052661800000003,121.5196088,554026968
大同區,延平北路3段與昌吉街口,106-5-30,25.0682622,121.51089979999999,554326996
大同區,重慶北路3段與昌吉街口,106-6-3,25.0660149,121.51393590000002,554326993
大同區,環河北路1段與長安西路口,106-6-20,25.0524323,121.50726609999998,554026965
大同區,承德路2段成淵高中前,106-6-20,25.061357,121.51866000000001,554226986
大同區,重慶北路2段與涼州街口,106-6-3,25.060890899999997,121.51486940000001,554226984
大同區,重慶北路2段與南京西路口,106-6-4,25.054553,121.511596,554026970
大同區,民權西路與蘭州街口,106-6-5,25.062889000000002,121.5147047,554226988
大同區,民生西路與太原路口,106-4-14,25.0570219,121.5167199,554126976
大同區,鄭州路與塔城街口,106-4-18,25.050385000000002,121.50978640000001,553926961
大同區,南京西路67號,106-4-19,25.053185100000004,121.5188903,554026969
大同區,環河北路2段181號,106-4-23,25.0681556,121.5092374,554326996
大同區,民生西路與太原路口,106-5-7,25.0570219,121.5167199,554126976
大同區,塔城街與鄭州路口,106-5-8,25.050385000000002,121.50978640000001,553926961
大同區,承德路2段235號成淵高中前,106-4-17,25.061357,121.51866000000001,554226986
大同區,大龍街22巷,106-4-18,25.0637169,121.5158057,554226989
大同區,承德路1段與長安西路口,106-4-18,25.050904199999998,121.51696609999999,553926963
大同區,承德路3段190巷,106-4-23,25.0697306,121.5180544,554427001
大同區,南京西路262巷對面,106-4-24,25.053373,121.51526100000001,554026968
大同區,昌吉街與大龍街口,106-6-7,25.0712997,121.5159438,554427003
大同區,重慶北路3段與民權西路口,106-6-10,25.063122,121.51371740000002,554226988
大同區,延平北路1段與甘谷街口,106-6-21,25.0527697,121.51182890000001,554026966
大同區,民生西路286號,106-5-31,25.0568742,121.5129345,554126975
大同區,南京西路與南京西路64巷口口,106-6-29,25.0525429,121.5182821,554026967
大同區,重慶北路1段86號前,106-7-15,25.049577,121.513627,553926960
大同區,市民大道1段209號前(台北地下街Y1出口),106-5-1,25.0486673,121.51429089999999,553926958
大同區,承德路3段297號,106-5-8,25.0754485,121.5204804,554527010
大同區,民權西路與大龍街口,106-5-13,25.062972199999997,121.5166608,554226988
大同區,鄭州路與塔城街口,106-5-14,25.050385000000002,121.50978640000001,553926961
大同區,延平北路2段43巷8號,106-5-27,25.0632792,121.5108456,554226987
大同區,承德路3段與民族西路口,106-6-2,25.068799,121.51346399999998,554326998
大同區,延平北路2段70號,106-6-6,25.055709600000004,121.5115607,554126973
大同區,環河北路1段玉泉公園停車場號,106-4-25,25.0497229,121.507347,553926959
大同區,重慶北路2段與民權西路口,106-5-1,25.0621449,121.51338700000001,554226986
大同區,台北橋機車道下橋處,106-5-5,25.0632482,121.50951129999999,554226987
大同區,民權西路106號,106-5-13,25.0626833,121.5172713,554226988
大同區,昌吉街35號,106-5-19,25.065975299999998,121.5166918,554326994
大同區,民權西路與台北橋口往三重機車道,106-5-7,25.063710399999998,121.5065347,554226987
大同區,塔城街與長安西路口,106-5-4,25.052023499999997,121.51043370000001,554026965
大同區,民族西路182巷,106-5-20,25.068045,121.51485829999999,554326997
大同區,承德路3段與敦煌路口,106-5-31,25.070762300000002,121.518518,554427002
大同區,太原路與民生西路口,106-5-11,25.056997,121.51648600000001,554126976
大同區,承德路1段與平陽街口,106-5-23,25.0551611,121.5165423,554026973
大同區,延平北路2段239號,106-6-9,25.0613756,121.5114493,554226984
大同區,延平北路2段211號,106-6-16,25.0597579,121.511528,554126981
大同區,延平北路3段43號,106-6-9,25.064964399999997,121.5112246,554326991
大同區,承德路3段與民權西路口,106-5-29,25.0629867,121.5182325,554226989
大同區,承德路3段312號,106-5-16,25.074687,121.51968889999999,554527009
大同區,承德路2段2號日新國小,106-5-23,25.054404100000003,121.5164821,554026971
大同區,西寧北路與民生西路口,106-5-30,25.0526962,121.50863429999998,554026966
大同區,忠孝西路2段與西寧北路口,106-6-5,25.048573899999997,121.507576,553926956
大同區,重慶北路3段236巷45弄與重慶北路3段252巷口,106-6-13,25.0705982,121.5122257,554427001
大同區,承德路2段與民生西路口,106-5-12,25.055966,121.51839009999999,554126975
大同區,寧夏路與歸綏街口,106-5-13,25.058170999999998,121.50856499999999,554126977
大同區,台北橋匝道下橋處,106-5-24,25.063710399999998,121.5065347,554226987
大同區,延平北路3段66巷,106-5-10,25.0653999,121.51041129999999,554326991
大同區,延平北路2段與涼州街口,106-8-9,25.060562,121.511509,554226982
大同區,民權西路與延平北路2段口,106-8-9,25.0621,121.511175,554226985
大同區,重慶北路3段與酒泉街口,106-8-9,25.0717546,121.513667,554427003
大同區,承德路2段與南京西路口,106-5-21,25.053328,121.51763229999999,554026969
大同區,市民大道1段211號,106-5-22,25.0493179,121.5177851,553926960
大同區,環河北路1段與民生西路口,106-6-3,25.0568782,121.5082932,554126974
大同區,長安西路與西寧北路口,106-6-9,25.051480899999998,121.5144918,554026964
大同區,酒泉街64號對面,106-6-9,25.0719185,121.51550559999998,554427004
大同區,敦煌路80巷,106-6-19,25.075368,121.5175403,554527010
大同區,承德路3段285巷,106-6-16,25.0732086,121.5195399,554427007
大同區,承德路3段與酒泉街口,106-6-1,25.069937799999998,121.5182537,554427001
大同區,延平北路2段與民權西路口,106-6-1,25.0627882,121.51122050000001,554226987
大同區,承德路2段與錦西街口,106-6-2,25.060231299999998,121.51878980000001,554226983
大同區,昌吉街121號,106-6-6,25.065996,121.510678,554326992
大同區,民族西路187巷,106-6-8,25.0695457,121.5149182,554427000
大同區,大龍街46巷,106-6-12,25.0647841,121.51576419999999,554326991
大同區,鄭州路與塔城街口,106-5-19,25.050385000000002,121.50978640000001,553926961
大同區,迪化街2段296巷,106-5-26,25.0713468,121.51171129999999,554427002
大同區,承德路1段與太原路97巷口,106-6-14,25.0520443,121.51664620000001,554026966
大同區,民生西路57號,106-7-7,25.0577277,121.520325,554126979
大同區,延平北路3段110號,106-4-15,25.06683,121.510879,554326994
大同區,市民大道1段往西轉運站Y1出口前,106-4-4,25.0488533,121.5187085,553926959
大同區,長安西路177巷口,106-4-15,25.052325699999997,121.51371329999999,554026966
大同區,大龍街249號,106-3-23,25.0712997,121.5159438,554427003
大同區,延平北路2段與民權西路口,106-3-23,25.0627882,121.51122050000001,554226987
大同區,民權西路台北橋機車道往三重,106-3-29,25.063710399999998,121.5065347,554226987
大同區,重慶北路2段與蘭州街口,106-4-4,25.06181,121.5136507,554226985
大同區,延平北路3段與民族西路口,106-7-8,25.0686588,121.51085719999999,554326997
大同區,承德路2段與萬全街口,106-7-10,25.0584518,121.51827549999999,554126980
大同區,敦煌路175巷口,106-7-14,25.0768037,121.5109572,554527010
大同區,西寧北路中興醫院急診入口,106-7-15,25.0511327,121.50941940000001,554026962
大同區,寧夏路163號,106-7-21,25.061511199999998,121.514219,554226985
大同區,鄭州路與西寧北路口,106-7-26,25.050385000000002,121.50978640000001,553926961
大同區,重慶北路3段320號與重慶北路3段口對面,106-7-29,25.075350699999998,121.51355330000001,554527009
大同區,民樂街63號與延平北路2段口(延平北路2段60巷口),106-8-3,25.055465899999998,121.51123570000001,554026972
大同區,路225巷口(大橋頭捷運站1號出口),106-8-5,25.063198999999997,121.512801,554226988
大同區,民權西路184巷與民權西路160巷26弄口,106-8-28,25.061510300000002,121.5145186,554226985
大同區,酒泉街77號,106-3-2,25.0718127,121.516718,554427004
大同區,延平北路2段與民權西路口,106-3-7,25.0627882,121.51122050000001,554226987
大同區,南京西路與太原路口,106-3-7,25.053588100000002,121.5160989,554026969
大同區,民權西路與蘭州街口,106-3-8,25.062889000000002,121.5147047,554226988
大同區,承德路3段與民權西路口,106-3-13,25.0629867,121.5182325,554226989
大同區,長安西路與西寧北路口,106-3-15,25.051480899999998,121.5144918,554026964
大同區,南京西路與民樂街口,106-3-20,25.0538358,121.5110423,554026969
大同區,承德路1段64號,106-3-9,25.052070999999998,121.51714199999999,554026966
大同區,承德路3段與敦煌路口,106-3-9,25.070762300000002,121.518518,554427002
大同區,市民高架道往三重,106-3-27,25.0491806,121.5144925,553926959
大同區,民生西路與延平北路2段口,106-3-28,25.056957,121.5115836,554126975
大同區,西寧北路32號,106-4-8,25.051222699999997,121.50821770000002,554026962
大同區,寧夏路與保安街口,106-5-1,25.059831,121.51147399999999,554126981
大同區,民權西路136號,106-5-15,25.062735399999998,121.5164841,554226988
大同區,南京西路與環河北路口,106-4-12,25.0645665,121.5086831,554226989
大同區,重慶北路3段與民族西路口,106-5-19,25.068799,121.51346399999998,554326998
大同區,南京西路與迪化街1段口,106-5-19,25.055104699999998,121.5100372,554026971
大同區,南京西路與民樂街口,106-5-25,25.0538358,121.5110423,554026969
大同區,承德路3段276號,106-6-28,25.063414399999996,121.5185008,554226989
大同區,延平北路4段17巷與延平北路4段口,106-11-15,25.0638473,121.5112805,554226989
大同區,重慶北路3段26號,106-3-16,25.0800199,121.51321499999999,554627016
大同區,民權西路136號,106-3-18,25.062735399999998,121.5164841,554226988
大同區,甘州街58號與甘州街口,106-3-30,25.059389000000003,121.51276659999999,554126980
大同區,長安西路78巷口,106-4-1,25.0498332,121.51916999999999,553926962
大同區,民生西路與承德路2段口,106-4-11,25.0550237,121.51801809999999,554026973
大同區,鄭州路與塔城街口,106-4-15,25.050385000000002,121.50978640000001,553926961
大同區,環河北路1段水門內堤外便道10號燈桿,106-4-17,25.0519062,121.50673049999999,554026963
大同區,台北橋機車道往台北,106-4-23,25.063710399999998,121.5065347,554226987
大同區,南京西路76號,106-4-13,25.0528938,121.51818590000002,554026968
大同區,市民大道1段與西寧北路口,106-3-16,25.050385000000002,121.50978640000001,553926961
大同區,承德路3段與昌吉街口,106-3-16,25.0660079,121.51815330000001,554326994
大同區,長安西路320號,106-4-18,25.051951000000003,121.51154779999999,554026965
大同區,長安西路212號,106-4-18,25.051278,121.514923,554026964
大同區,台北橋機車道往西,106-4-5,25.063710399999998,121.5065347,554226987
大同區,承德路3段與民族西路口,106-4-11,25.068799,121.51346399999998,554326998
大同區,承德路3段與庫倫街口,106-6-19,25.069937799999998,121.5182537,554427001
大同區,民權西路與承德路3段口,106-1-5,25.0638424,121.5181676,554226990
大同區,市民大道1段轉運站Y1出口前,106-1-6,25.0488533,121.5187085,553926959
大同區,承德路3段與民族西路口,106-1-6,25.068799,121.51346399999998,554326998
大同區,長安西路287號,106-1-14,25.0521418,121.5095604,554026965
大同區,承德路2段與民權西路口,106-1-15,25.0629867,121.5182325,554226989
大同區,延平北路2段與涼州街口,106-3-30,25.060562,121.511509,554226982
大同區,重慶北路3段與民權西路口,106-4-11,25.063122,121.51371740000002,554226988
大同區,承德路1段與華陰街口,106-4-13,25.050481,121.5144612,553926962
大同區,承德路3段與庫倫街口,106-4-24,25.069937799999998,121.5182537,554427001
大同區,長安西路108號,106-4-25,25.050511899999997,121.5184404,553926963
大同區,鄭州路與西寧北路口,106-4-30,25.050385000000002,121.50978640000001,553926961
大同區,承德路3段176巷,106-5-2,25.0691393,121.517624,554326999
大同區,民生西路423巷,106-5-7,25.057248100000002,121.50878459999998,554126975
大同區,環河北路3段南往北高公橋下,106-5-7,25.0836033,121.50688899999999,554727019
大同區,重慶北路2段與民生西路口,106-5-13,25.0569098,121.51359790000001,554126976
大同區,承德路2段與平陽街口,106-5-18,25.0551611,121.5165423,554026973
大同區,重慶北路2段與保安街口,106-4-2,25.059375199999998,121.5134561,554126980
大同區,延平北路1段與鄭州路口,106-4-2,25.0508285,121.5119395,553926962
大同區,延平北路2段與民權西路口,106-4-4,25.0627882,121.51122050000001,554226987
大同區,民權西路118巷,106-4-7,25.0621708,121.51675259999999,554226987
大同區,環河北路1段與民生西路口,106-4-13,25.0568782,121.5082932,554126974
大同區,環河北路1段271號,106-4-14,25.058436,121.50861,554126978
大同區,萬全街40巷,106-4-15,25.058321600000003,121.520146,554126980
大同區,承德路1段與長安西路口,106-4-20,25.050904199999998,121.51696609999999,553926963
大同區,赤峰街53巷與南京西路25巷口,106-3-29,25.0562635,121.5204527,554126976
大同區,承德路3段111號,106-5-9,25.066804,121.518667,554326996
大同區,市民大道1段與承德路1段口,106-4-1,25.0490476,121.51810990000001,553926960
大同區,承德路3段283巷與承德路3段285巷口,106-4-23,25.063414399999996,121.5185008,554226989
大同區,哈密街59巷與敦煌路口,106-4-23,25.0763338,121.5155544,554527011
大同區,承德路3段與民族西路口,106-4-25,25.068799,121.51346399999998,554326998
大同區,承德路1段14號,106-4-27,25.0633359,121.51858200000001,554226989
大同區,民權西路與延平北路3段口,106-5-18,25.0633642,121.51117959999999,554226988
大同區,承德路1段與市民大道1段口,106-5-26,25.050385000000002,121.50978640000001,553926961
大同區,承德路2段與民權西路口,106-5-29,25.0629867,121.5182325,554226989
大同區,承德路2段164號,106-4-1,25.060863,121.5180088,554226984
大同區,涼州街與保安街49巷口,106-4-12,25.0603561,121.5119416,554226982
大同區,承德路2段與錦西街口,106-4-13,25.060231299999998,121.51878980000001,554226983
大同區,延平北路2段與民權西路口,106-4-26,25.0627882,121.51122050000001,554226987
大同區,鄭州路與延平北路1段口,106-5-2,25.048754000000002,121.510948,553926957
大同區,環河北路2段與民族西路口,106-5-4,25.068778,121.5092035,554326997
大同區,忠孝西路2段與西寧北路口,106-4-1,25.048573899999997,121.507576,553926956
大同區,大龍街與酒泉街口,106-4-4,25.071921600000003,121.5160093,554427004
大同區,太原路與太原路183巷口,106-4-9,25.0503885,121.51524380000001,553926962
大同區,大龍街68號,106-4-10,25.065379800000002,121.5159906,554326992
大同區,承德路3段與庫倫街口,106-5-25,25.069937799999998,121.5182537,554427001
大同區,承德路3段60號,106-6-2,25.065329600000002,121.51810220000002,554326993
大同區,民生西路293號,106-6-13,25.0571056,121.51311809999999,554126976
大同區,延平北路2段與民權西路口,106-6-13,25.0627882,121.51122050000001,554226987
大同區,赤峰街41巷1號,106-5-24,25.0549401,121.5198273,554026973
大同區,台北橋往三重機車道,106-6-6,25.063710399999998,121.5065347,554226987
大同區,延平北路4段149號,106-6-7,25.063489899999997,121.51106499999999,554226988
大同區,重慶北路1段與長安西路口,106-6-18,25.051622100000003,121.5138878,554026964
大同區,大稻埕堤外便道自行車道,106-6-24,25.0566228,121.50717959999999,554126974
大同區,重慶北路3段與民權西路口,106-6-24,25.063122,121.51371740000002,554226988
大同區,延平北路2段與民權西路口,106-4-11,25.0627882,121.51122050000001,554226987
大同區,鄭州路與塔城街口,106-4-23,25.050385000000002,121.50978640000001,553926961
大同區,延平北路1段71號,106-4-24,25.0670589,121.511082,554326994
大同區,環河北路1段與南京西路口,106-5-1,25.053735600000003,121.50750049999999,554026968
大同區,民權西路與蘭州街口,106-4-25,25.062889000000002,121.5147047,554226988
大同區,民權西路與承德路3段口,106-4-26,25.0638424,121.5181676,554226990
大同區,承德路3段與民權西路口,106-5-6,25.0629867,121.5182325,554226989
大同區,敦煌路與哈密街59巷口慶昌橋下,106-5-6,25.0763338,121.5155544,554527011
大同區,延平北路4段與迪化街2段191巷口,106-5-7,25.055104699999998,121.5100372,554026971
大同區,民族西路118號前,106-5-9,25.0684634,121.51684879999999,554326998
大同區,民生西路與西寧北路口,106-5-21,25.0569879,121.5155683,554126976
大同區,歸綏街與迪化街1段口,106-1-2,25.055104699999998,121.5100372,554026971
大同區,民權西路199號,106-1-10,25.063142199999998,121.5152855,554226988
大同區,重慶北路3段320號,106-1-11,25.0753508,121.51355339999999,554527009
大同區,忠孝橋往西上橋處,106-1-5,25.049878600000003,121.5061018,553926959
大同區,赤峰街47巷2號,106-1-8,25.0552581,121.5197145,554026973
大同區,忠孝西路2段與西寧北路口,106-1-9,25.048573899999997,121.507576,553926956
大同區,延平北路1段136號,106-1-10,25.0534335,121.5116983,554026968
大同區,西寧北路90-1號,106-1-14,25.055374,121.508803,554026971
大同區,環河北路1段與南京西路口,106-1-15,25.053735600000003,121.50750049999999,554026968
大同區,重慶北路1段與長安西路口,106-1-16,25.051622100000003,121.5138878,554026964
大同區,重慶北路1段71號,106-1-18,25.052015700000002,121.5141913,554026965
大同區,鄭州路29巷,106-1-21,25.049880399999996,121.5142952,553926961
大同區,民生西路66巷,106-1-31,25.056938600000002,121.52078159999999,554126977
大同區,延平北路4段與敦煌路口,106-1-31,25.105880199999998,121.47792340000002,555227036
大同區,重慶北路2段與民權西路口,106-2-1,25.0621449,121.51338700000001,554226986
大同區,承德路2段與民權西路口,106-1-3,25.0629867,121.5182325,554226989
大同區,重慶北路3段223巷32號,106-1-3,25.070423499999997,121.5148939,554427001
大同區,長安西路與西寧北路口,106-1-6,25.051480899999998,121.5144918,554026964
大同區,涼州街與延平北路2段口,106-1-2,25.0606656,121.51135120000001,554226983
大同區,延平北路3段與民權西路口,106-1-25,25.0631105,121.5112207,554226987
大同區,承德路2段與民權西路口,106-2-2,25.0629867,121.5182325,554226989
大同區,長安西路172巷,106-2-10,25.050628600000003,121.5159828,553926963
大同區,赤峰街41巷與承德路2段37巷口,106-1-28,25.0632571,121.5180676,554226989
大同區,民權西路與台北橋口機車道,106-2-11,25.0630612,121.515679,554226988
大同區,華陰街與承德路1段口,106-2-15,25.050481,121.5144612,553926962
大同區,民權西路與蘭州街口,106-1-2,25.062889000000002,121.5147047,554226988
大同區,敦煌路34號,106-1-23,25.0752786,121.51930220000001,554527010
大同區,延平北路2段144巷,106-1-21,25.0576494,121.5110915,554126976
大同區,重慶北路3段333號,106-1-31,25.0745153,121.51411850000001,554527008
大同區,民權西路146號,106-2-4,25.0627549,121.51582749999999,554226988
大同區,錦西街180-1號,106-2-10,25.0596444,121.5156769,554126982
大同區,民權西路146號,106-5-21,25.0627549,121.51582749999999,554226988
大同區,鄭州路與西寧北路口,106-2-17,25.050385000000002,121.50978640000001,553926961
大同區,延平北路3段與民權西路口,106-1-13,25.0631105,121.5112207,554226987
大同區,延平北路2段與民權西路口,106-6-8,25.0627882,121.51122050000001,554226987
大同區,民權西路與延平北路3段口臺北橋機車上橋處,106-1-14,25.062747899999998,121.51127040000002,554226987
大同區,環河北路1段437號,106-1-14,25.0623695,121.5087791,554226985
大同區,長安西路與西寧北路口,106-1-18,25.051480899999998,121.5144918,554026964
大同區,承德路3段276號,106-1-19,25.063414399999996,121.5185008,554226989
大同區,承德路1段與長安西路口,106-1-24,25.050904199999998,121.51696609999999,553926963
大同區,民生西路與雙連街口,106-2-6,25.0577926,121.51921580000001,554126979
大同區,市民高架道與重慶北路1段口,106-2-6,25.0487715,121.51631450000001,553926959
大同區,市民高架道東側附近往東,106-2-7,25.0488533,121.5187085,553926959
大同區,承德路1段與市民大道1段口,106-1-14,25.050385000000002,121.50978640000001,553926961
大同區,重慶北路2段與南京西路口,106-1-17,25.054553,121.511596,554026970
大同區,承德橋往士林機車道,106-1-17,25.0776942,121.521069,554527014
大同區,重慶北路1段與華陰街口,106-1-19,25.050481,121.5144612,553926962
大同區,承德路3段178號,106-1-19,25.0691865,121.51823040000001,554427000
大同區,民族西路82號,106-1-20,25.0684163,121.51736090000001,554326998
大同區,民權西路捷運大橋頭站1號出口,106-1-29,25.063198999999997,121.512801,554226988
大同區,重慶北路2段與保安街口,106-5-22,25.059375199999998,121.5134561,554126980
大同區,大龍街270號,106-6-16,25.070781,121.515781,554427002
大同區,重慶北路3段與民族西路口,106-1-5,25.068799,121.51346399999998,554326998
大同區,延平北路4段與酒泉街口,106-1-6,25.0719201,121.51094259999999,554427003
大同區,承德橋下橋處,106-1-18,25.0777125,121.51881359999999,554527013
大同區,延平北路2段216號,106-1-19,25.0632792,121.5108456,554226987
大同區,塔城街與鄭州路口,106-1-19,25.050385000000002,121.50978640000001,553926961
大同區,市民高架道東往西84號燈桿,106-1-16,25.0491806,121.5144925,553926959
大同區,路252巷口(民族西路250號前),106-1-18,25.0685063,121.5124051,554326997
大同區,民權西路與蘭州街口,106-6-27,25.062889000000002,121.5147047,554226988
大同區,雙連街51號與雙連街口,106-7-5,25.0577926,121.51921580000001,554126979
大同區,延平北路3段18巷與延平北路3段口,106-7-6,25.0673044,121.51105120000001,554326995
大同區,南京西路47號與南京西路口,106-7-10,25.0529891,121.51964009999999,554026969
大同區,保安街與甘州街口,106-7-11,25.059389000000003,121.51276659999999,554126980
大同區,重慶北路3段324號,106-7-18,25.075700899999998,121.5136039,554527009
大同區,南京西路30號,106-7-24,25.0525979,121.5198723,554026968
大同區,延平北路1段與民權西路口,106-7-31,25.0631822,121.51113500000001,554226987
大同區,環河北路1段與南京西路口,106-8-1,25.053735600000003,121.50750049999999,554026968
大同區,延平北路1段36號與延平北路1段口,106-8-4,25.0521674,121.51168799999999,554026965
大同區,民生西路與承德路2段口,106-8-5,25.0550237,121.51801809999999,554026973
大同區,長安西路150號與承德路1段口,106-8-5,25.0508862,121.51663400000001,553926963
大同區,南京西路352號與延平北路1段口,106-8-6,25.053785100000002,121.5112644,554026968
大同區,民權西路與重慶北路2段口,106-8-19,25.0621449,121.51338700000001,554226986
大同區,長安西路與西寧北路口,106-1-12,25.051480899999998,121.5144918,554026964
大同區,承德路3段與昌吉街口,106-1-13,25.0660079,121.51815330000001,554326994
大同區,鄭州路1段與環河北路1段口,106-1-26,25.0609678,121.5083618,554226982
大同區,鄭州路與塔城街口,106-2-5,25.050385000000002,121.50978640000001,553926961
大同區,延平北路4段與酒泉街口,106-2-5,25.0719201,121.51094259999999,554427003
大同區,南京西路36號,106-1-21,25.052661800000003,121.5196088,554026968
大同區,迪化街2段146巷與環河北路2段185巷口,106-1-26,25.0836033,121.50688899999999,554727019
大同區,大龍街91巷與大龍街159巷18弄口,106-3-7,25.0663713,121.51668490000002,554326994
大同區,民族西路180號,106-1-23,25.068499,121.5149517,554326998
大同區,延平北路2段與涼州街口,106-1-29,25.060562,121.511509,554226982
大同區,台北橋三重往台北機車道,106-1-31,25.063710399999998,121.5065347,554226987
大同區,延平北路2段與南京西路口,106-1-6,25.054845999999998,121.511773,554026971
大同區,民權西路與承德路1段口,106-1-12,25.062904999999997,121.519319,554226989
大同區,昌吉街與延平北路3段口,106-3-9,25.0673044,121.51105120000001,554326995
大同區,承德路3段與民生西路口,106-3-10,25.070762300000002,121.518518,554427002
大同區,鄭州路與重慶北路1段口臺北地下街Y19出口,106-3-14,25.0486673,121.51429089999999,553926958
大同區,承德路3段24巷與承德路3段口,106-3-27,25.0642097,121.51828880000001,554226991
大同區,民權西路與迪化街1段口,106-1-9,25.062178,121.50932399999999,554226985
大同區,台北橋機車道下橋處,106-1-13,25.0632482,121.50951129999999,554226987
大同區,鄭州路與西寧北路口,106-1-13,25.050385000000002,121.50978640000001,553926961
大同區,延平北路3段82號,106-1-22,25.0657097,121.5109364,554326992
大同區,延平北路3段8號,106-1-25,25.063655999999998,121.51106000000001,554226988
大同區,鄭州路與環河北路1段口,106-1-25,25.0507942,121.50675919999999,553926961
大同區,延平北路2段57號,106-2-1,25.0553694,121.51180790000001,554026972
大同區,承德路3段105號,106-1-16,25.066637600000004,121.51862790000001,554326995
大同區,承德路3段與酒泉街口,106-1-19,25.069937799999998,121.5182537,554427001
大同區,承德路2段與民生西路口,106-8-25,25.055966,121.51839009999999,554126975
大同區,萬全街與民生西路171巷口口,106-8-25,25.057497,121.51701299999999,554126977
大同區,鄭州路與太原路口,106-6-30,25.0493801,121.514592,553926960
大同區,延平北路2段與民權西路口,106-7-6,25.0627882,121.51122050000001,554226987
大同區,承德路1段與華陰街口,106-7-7,25.050481,121.5144612,553926962
大同區,民權西路144巷10弄4號,106-7-7,25.0621814,121.5157547,554226986
大同區,西寧北路與鄭州路口,106-7-7,25.050385000000002,121.50978640000001,553926961
大同區,延平北路1段與甘谷街口,106-1-22,25.0527697,121.51182890000001,554026966
大同區,民族西路與承德路3段口,106-1-30,25.068537399999997,121.51847250000002,554326999
大同區,赤峰街79號,106-1-31,25.057119,121.5197922,554126977
大同區,南京西路448號,106-1-21,25.053406,121.508241,554026967
大同區,民族西路與承德路3段口,106-1-25,25.068537399999997,121.51847250000002,554326999
大同區,鄭州路與塔城街口,106-1-25,25.050385000000002,121.50978640000001,553926961
大同區,太原路與華陰街口,106-2-7,25.050481,121.5144612,553926962
大同區,鄭州路與西寧北路口,106-1-26,25.050385000000002,121.50978640000001,553926961
大同區,迪化街2段與迪化街2段149巷口口,106-8-30,25.056834,121.509752,554126975
大同區,敦煌路與敦煌路80巷口口,106-8-31,25.075789800000003,121.5176731,554527010
大同區,南京西路179號,106-1-17,25.05405,121.51251200000002,554026969
大同區,重慶北路2段與民權西路口,106-1-25,25.0621449,121.51338700000001,554226986
大同區,重慶北路1段與長安西路口,106-1-19,25.051622100000003,121.5138878,554026964
大同區,承德路3段與庫倫街口,106-5-23,25.069937799999998,121.5182537,554427001
大同區,大稻埕堤外便道與環河北路1段口,106-6-12,25.0566228,121.50717959999999,554126974
大同區,民生西路與太原路口,106-6-12,25.0570219,121.5167199,554126976
大同區,重慶北路1段97號,106-6-14,25.080023,121.51324,554627016
大同區,赤峰街47巷2號,106-6-14,25.0552581,121.5197145,554026973
大同區,承德路3段與民族西路口口,106-8-17,25.068799,121.51346399999998,554326998
大同區,重慶北路3段250-2號前,106-8-17,25.0710274,121.51350719999999,554427002
大同區,承德路2段與平陽街口口,106-8-18,25.0551611,121.5165423,554026973
大同區,90號前,106-8-22,25.062724300000003,121.5113064,554226986
大同區,重慶北路3段156號前,106-8-24,25.0800199,121.51321499999999,554627016
大同區,長安西路與重慶北路1段口,106-6-20,25.051622100000003,121.5138878,554026964
大同區,承德路3段與民族西路口,106-6-23,25.068799,121.51346399999998,554326998
大同區,雙連街11巷,106-7-1,25.0582351,121.51947790000001,554126980
大同區,寧夏路與保安街口,106-7-13,25.059831,121.51147399999999,554126981
大同區,通河西街1段20號,106-9-14,25.081359,121.51368319999999,554627018
大同區,西寧北路與南京西路口,106-7-18,25.053377800000003,121.5087403,554026967
大同區,民生西路與民樂街口,106-8-28,25.0582238,121.5105935,554126978
大同區,延平北路2段與南京西路口,106-6-12,25.054845999999998,121.511773,554026971
大同區,民族西路186號,106-6-19,25.0684883,121.51473770000001,554326998
大同區,民生西路280號,106-6-19,25.0568723,121.5130219,554126975
大同區,延平北路4段與敦煌路口,106-6-20,25.105880199999998,121.47792340000002,555227036
大同區,環河北路1段與南京西路口,106-6-24,25.053735600000003,121.50750049999999,554026968
大同區,環河北路1段與鄭州路口,106-6-25,25.0596283,121.5085172,554126980
大同區,民權西路與蘭州街口,106-9-6,25.062889000000002,121.5147047,554226988
大同區,承德路2段日新國小前,106-10-14,25.054404100000003,121.5164821,554026971
大同區,延平北路2段與涼州街口,106-10-19,25.060562,121.511509,554226982
大同區,市民大道1段台北轉運站Y1出口前,106-11-3,25.0488533,121.5187085,553926959
大同區,承德路3段242號,106-6-24,25.063414399999996,121.5185008,554226989
大同區,南京西路302巷口,106-6-28,25.053601,121.513571,554026969
大同區,哈密街59巷與哈密街59巷56弄口口,106-7-10,25.075351,121.51574440000002,554527009
大同區,承德路2段91巷37號,106-6-27,25.056286800000002,121.51934209999999,554126976
大同區,南京西路64巷與長安西路口,106-7-1,25.0506156,121.5182602,553926963
大同區,民生西路與延平北路2段口,106-7-15,25.056957,121.5115836,554126975
大同區,民生西路與延平北路2段口,106-7-11,25.056957,121.5115836,554126975
大同區,環河北路1段與鄭州路口,106-7-9,25.0596283,121.5085172,554126980
大同區,民族西路與大龍街159巷18弄口,106-7-17,25.0685862,121.51586529999999,554326998
大同區,民權西路與蘭州街口,106-7-22,25.062889000000002,121.5147047,554226988
大同區,鄭州路139號,106-7-18,25.0504907,121.5101047,553926961
大同區,民生西路112號,106-7-18,25.0573789,121.51959,554126978
大同區,南京西路374號,106-6-28,25.05369,121.51066100000001,554026968
大同區,台北橋2段機車道往三重,106-6-22,25.063710399999998,121.5065347,554226987
大同區,台北橋機車道往東下橋處,106-6-7,25.063710399999998,121.5065347,554226987
大同區,環河北路1段與歸綏街口,106-6-9,25.058170999999998,121.50856499999999,554126977
大同區,民權西路225巷,106-6-9,25.063848899999996,121.51212609999999,554226989
大同區,重慶北路2段80巷,106-6-12,25.056419299999998,121.5131168,554126974
大同區,長安西路342-1號,106-6-16,25.0519413,121.5101429,554026964
大同區,承德路1段與長安西路口,106-6-18,25.050904199999998,121.51696609999999,553926963
大同區,延平北路4段50號,106-6-19,25.0701967,121.51075,554427000
大同區,重慶北路1段與華陰街口,106-6-22,25.050481,121.5144612,553926962
大同區,寧夏路與錦西街口,106-6-23,25.059546700000002,121.5147608,554126981
大同區,台北橋機車道往三重上橋處,106-6-23,25.0632482,121.50951129999999,554226987
大同區,環河北路1段往北玉泉公園,106-6-24,25.050110999999998,121.5074685,553926960
大同區,延平北路1段與民權西路口,106-6-14,25.0631822,121.51113500000001,554226987
大同區,鄭州路與西寧北路口,106-6-20,25.050385000000002,121.50978640000001,553926961
大同區,重慶北路3段120巷15號,106-6-21,25.067294699999998,121.51300619999999,554326995
大同區,民生西路324號,106-6-26,25.056847199999996,121.511443,554126975
大同區,長安西路與延平北路1段口,106-7-4,25.048754000000002,121.510948,553926957
大同區,台北橋機車道下橋處,106-7-4,25.0632482,121.50951129999999,554226987
大同區,重慶北路2段與涼州街口,106-7-4,25.060890899999997,121.51486940000001,554226984
大同區,民權西路136號,106-7-6,25.062735399999998,121.5164841,554226988
大同區,台北橋機慢車專用道上橋處,106-7-9,25.063710399999998,121.5065347,554226987
大同區,重慶北路1段與鄭州路口,106-8-9,25.0487715,121.51631450000001,553926959
大同區,錦西街60號,106-7-11,25.060184399999997,121.51962959999999,554226983
大同區,鄭州路與塔城街口,106-7-11,25.050385000000002,121.50978640000001,553926961
大同區,市民大道1段209號台北轉運站 Y1出口前,106-7-17,25.0488533,121.5187085,553926959
大同區,環河北路2段與敦煌路南側附近口附近,106-9-16,25.0763833,121.5130478,554527010
大同區,哈密街59巷第6號停車格旁,106-9-25,25.073988399999998,121.51664720000001,554527007
大同區,鄭州路與環河北路1段口口,106-9-29,25.059041,121.508909,554126979
大同區,市民大道1段209號Y1出口旁,106-9-30,25.0488169,121.5182436,553926959
大同區,保安街1-1號對面,106-10-2,25.0594016,121.51440320000002,554126981
大同區,哈密街與哈密街63巷口附近,106-10-6,25.0732069,121.5155395,554427006
大同區,重慶北路2段與民權西路口口,106-10-18,25.0585191,121.5137091,554126979
大同區,承德路1段與南京西路北側附近口,106-10-26,25.062904999999997,121.519319,554226989
大同區,重慶北路2段與保安街口北向南,106-11-7,25.059375199999998,121.5134561,554126980
大同區,民生西路210號,106-6-17,25.056942899999996,121.51510790000002,554126976
大同區,民樂街與民生西路口,106-6-24,25.0569336,121.5108371,554126975
大同區,延平北路2段與民生西路口,106-8-23,25.054723000000003,121.511843,554026971
大同區,鄭州路與塔城街口,106-6-27,25.050385000000002,121.50978640000001,553926961
大同區,太原路與長安西路口,106-7-13,25.0513419,121.51557,554026964
大同區,鄭州路與西寧北路口,106-6-22,25.050385000000002,121.50978640000001,553926961
大同區,承德路1段與華陰街口,106-7-11,25.050481,121.5144612,553926962
大同區,延平北路3段20巷,106-6-25,25.064017899999996,121.511054,554226989
大同區,延平北路2段與民生西路口,106-6-26,25.054723000000003,121.511843,554026971
大同區,承德路3段與敦煌路口,106-7-2,25.070762300000002,121.518518,554427002
大同區,民權西路與大龍街口,106-7-6,25.062972199999997,121.5166608,554226988
大同區,延平北路2段272巷與安西街口,106-7-15,25.0621,121.511175,554226985
大同區,承德路3段與民族西路口,106-8-2,25.068799,121.51346399999998,554326998
大同區,承德路3段224號與承德路3段口,106-8-9,25.064918,121.518555,554326992
大同區,延平北路3段與昌吉街口,106-8-12,25.0682622,121.51089979999999,554326996
大同區,民生西路與西寧北路口,106-8-14,25.0569879,121.5155683,554126976
大同區,環河北路2段與昌吉街口,106-7-1,25.0658326,121.5088817,554326992
大同區,重慶北路1段與長安西路口,106-7-12,25.051622100000003,121.5138878,554026964
大同區,民權西路125號,106-7-13,25.0631595,121.5173273,554226989
大同區,承德路1段與長安西路口,106-7-31,25.050904199999998,121.51696609999999,553926963
大同區,承德路3段與庫倫街口,106-8-1,25.069937799999998,121.5182537,554427001
大同區,通河西街1段P8柱,106-8-2,25.0807959,121.513962,554627017
大同區,承德路1段與南京西路口,106-8-1,25.053328,121.51763229999999,554026969
大同區,民族西路182巷與民族西路口,106-8-2,25.0681852,121.5149457,554326997
大同區,承德路2段與民權西路口,106-8-13,25.0629867,121.5182325,554226989
大同區,民生西路423巷與民生西路口,106-8-14,25.057304000000002,121.50886799999999,554126975
大同區,民生西路與延平北路2段口,106-7-3,25.056957,121.5115836,554126975
大同區,環河北路1段與忠孝西路2段口,106-7-8,25.0836033,121.50688899999999,554727019
大同區,鄭州路與西寧北路口,106-7-29,25.050385000000002,121.50978640000001,553926961
大同區,延平北路3段與民權西路口,106-7-28,25.0631105,121.5112207,554226987
大同區,承德路2段與民生西路口,106-7-14,25.055966,121.51839009999999,554126975
大同區,延平北路4段294巷與延平北路4段282巷口,106-8-7,25.0773605,121.51074709999999,554527011
大同區,延平北路3段與民族西路口,106-8-8,25.0686588,121.51085719999999,554326997
大同區,庫倫街13巷2弄與庫倫街13巷口,106-9-3,25.0723119,121.5173322,554427005
大同區,鄭州路與塔城街口,106-9-4,25.050385000000002,121.50978640000001,553926961
大同區,重慶北路3段190號,106-4-27,25.0800199,121.51321499999999,554627016
大同區,民權西路184巷28號,106-6-22,25.061764,121.51445,554226985
大同區,涼州街54號,106-6-28,25.060585,121.511657,554226982
大同區,民權西路114巷19弄與民權西路114巷口,106-7-13,25.0627313,121.5170027,554226988
大同區,台北橋往三重機車道,106-11-21,25.063710399999998,121.5065347,554226987
大同區,承德路3段與酒泉街口,106-12-23,25.069937799999998,121.5182537,554427001
大同區,長安西路與塔城街口,106-12-30,25.050385000000002,121.50978640000001,553926961
大同區,長安西路320號,106-12-18,25.051951000000003,121.51154779999999,554026965
大同區,昌吉街與大龍街口,106-12-14,25.0712997,121.5159438,554427003
大同區,迪化街2段215號,106-12-23,25.0703835,121.5117231,554427000
大同區,延平北路2段與民生西路口,106-12-23,25.054723000000003,121.511843,554026971
大同區,承德路2段與錦西街口,106-12-26,25.060231299999998,121.51878980000001,554226983
大同區,錦西街與民生西路45巷口,106-12-27,25.060271,121.52028899999999,554226984
大同區,忠孝西路1段與塔城街口,106-12-19,25.0477266,121.51216399999998,553926955
大同區,昌吉街與重慶北路3段口,106-12-19,25.0659352,121.513585,554326993
大同區,重慶北路1段83巷與南京西路262巷口,106-12-24,25.0526704,121.5141467,554026967
大同區,民權西路與台北橋口機車道第66號燈桿,106-12-28,25.0630612,121.515679,554226988
大同區,承德路3段與庫倫街口,106-12-29,25.069937799999998,121.5182537,554427001
大同區,太原路與長安西路口,106-7-1,25.0513419,121.51557,554026964
大同區,環河北路1段與南京西路口(堤外便道四號水門口),106-7-10,25.0519062,121.50673049999999,554026963
大同區,環河北路2段293號,106-7-14,25.0714635,121.5093865,554427002
大同區,重慶北路3段320-2號,106-7-21,25.0753508,121.51355339999999,554527009
大同區,保安街與寧夏路口,106-8-1,25.0568531,121.5155445,554126976
大同區,環河北路2段與民族西路口,106-7-1,25.068778,121.5092035,554326997
大同區,承德路3段與庫倫街口,106-11-8,25.069937799999998,121.5182537,554427001
大同區,環河北路2段與環河北路2段145巷口,106-7-7,25.0672224,121.5090015,554326994
大同區,環河北路1段與歸綏街口,106-7-13,25.058170999999998,121.50856499999999,554126977
大同區,重慶北路2段64巷26號與重慶北路2段46巷口,106-7-18,25.079835,121.513997,554627016
大同區,承德路2段與民權西路口,106-7-20,25.0629867,121.5182325,554226989
大同區,台北橋往三重機車道,106-7-24,25.063710399999998,121.5065347,554226987
大同區,西寧北路3巷前,106-7-13,25.051247,121.5082165,554026962
大同區,西寧北路與鄭州路口,106-7-27,25.050385000000002,121.50978640000001,553926961
大同區,承德路3段與民權西路口,106-8-4,25.0629867,121.5182325,554226989
大同區,涼州街34號,106-8-5,25.0606014,121.5124674,554226983
大同區,承德路3段與敦煌路口,106-8-10,25.070762300000002,121.518518,554427002
大同區,蘭州街124巷與重慶北路3段25巷口,106-8-16,25.064735,121.51443300000001,554326991
大同區,承德路3段與民權西路口,106-8-31,25.0629867,121.5182325,554226989
大同區,環河北路1段與南京西路口,106-9-5,25.053735600000003,121.50750049999999,554026968
大同區,承德橋南往北上橋處,106-9-28,25.0776942,121.521069,554527014
大同區,環河北路1段與鄭州路口,106-10-4,25.0596283,121.5085172,554126980
大同區,承德路3段與敦煌路口,106-11-19,25.070762300000002,121.518518,554427002
大同區,長安西路與西寧北路口,106-11-20,25.051480899999998,121.5144918,554026964
大同區,甘州街與涼州街口,106-11-24,25.060890899999997,121.51486940000001,554226984
大同區,民生西路與重慶北路2段口,106-7-11,25.0570027,121.51384750000001,554126976
大同區,長安西路與華亭街口,106-7-24,25.053906299999998,121.5131365,554026969
大同區,延平北路4段102巷,106-7-25,25.0716226,121.50998870000001,554427002
大同區,民權西路225巷與民權西路口,106-7-30,25.0643302,121.5119253,554226990
大同區,歸綏街與安西街口,106-8-6,25.0582238,121.5105935,554126978
大同區,鄭州路與西寧北路口,106-8-7,25.050385000000002,121.50978640000001,553926961
大同區,民生西路與萬全街口,106-8-7,25.057848899999996,121.520473,554126979
大同區,市民大道1段Y1出口前,106-8-12,25.0486673,121.51429089999999,553926958
大同區,民權西路102巷,106-8-22,25.061579100000003,121.5176956,554226986
大同區,延平北路3段與昌吉街口,106-8-26,25.0682622,121.51089979999999,554326996
大同區,延平北路4段22巷口,106-7-21,25.0692413,121.5107788,554426998
大同區,環河北路2段與敦煌路口,106-7-22,25.070524399999996,121.5091986,554427000
大同區,民族西路與民族西路252巷口口,106-8-3,25.068668399999996,121.5122545,554326997
大同區,重慶北路3段236巷與重慶北路3段236巷45弄口,106-11-28,25.0706323,121.5118242,554427001
大同區,承德路2段與民權西路口,106-12-31,25.0629867,121.5182325,554226989
大同區,延平北路1段66巷,106-8-1,25.051559100000002,121.51110759999999,554026964
大同區,哈密街59巷12號,106-7-29,25.0744172,121.51564840000002,554527008
大同區,承德路1段與華陰街口,106-8-24,25.050481,121.5144612,553926962
大同區,民權西路102巷33弄與民權西路102巷4弄口,106-8-31,25.061579100000003,121.5176956,554226986
大同區,民生西路與環河北路1段口,106-9-6,25.0836033,121.50688899999999,554727019
大同區,大龍街與昌吉街口,106-8-3,25.0663713,121.51668490000002,554326994
大同區,太原路與鄭州路口,106-8-9,25.0493801,121.514592,553926960
大同區,民權西路與台北橋口往新北市機車道,106-8-9,25.063156,121.514987,554226988
大同區,延平北路2段210巷與延平北路2段口,106-8-13,25.0592799,121.51075,554126980
大同區,承德路1段69巷與承德路1段口,106-8-15,25.051927399999997,121.5174051,554026966
大同區,鄭州路與西寧北路口,106-9-7,25.050385000000002,121.50978640000001,553926961
大同區,延平北路3段64-1號,106-9-7,25.063516,121.51129399999999,554226988
大同區,忠孝橋與忠孝橋口往三重機車道,106-9-7,25.049878600000003,121.5061018,553926959
大同區,台北橋往三重機車道,106-9-10,25.063710399999998,121.5065347,554226987
大同區,西寧北路與鄭州路口,106-9-11,25.050385000000002,121.50978640000001,553926961
大同區,延平北路1段69巷,106-9-18,25.051413600000004,121.5126668,554026964
大同區,重慶北路3段與民族西路口,106-9-20,25.068799,121.51346399999998,554326998
大同區,鄭州路109號,106-8-20,25.050268399999997,121.5112996,553926961
大同區,民族西路與承德路3段口,106-8-23,25.068537399999997,121.51847250000002,554326999
大同區,南京西路412巷與南京西路口,106-8-23,25.05264,121.51029199999999,554026966
大同區,酒泉街106號,106-8-29,25.071877,121.5142493,554427003
大同區,延平北路1段與鄭州路口,106-8-24,25.0508285,121.5119395,553926962
大同區,鄭州路與塔城街口,106-9-1,25.050385000000002,121.50978640000001,553926961
大同區,民生西路與寧夏路口,106-9-7,25.056956399999997,121.51568329999999,554126976
大同區,忠孝西路2段與忠孝橋口往三重上橋處,106-9-8,25.0476299,121.5127104,553926955
大同區,鄭州路與西寧北路口,106-9-5,25.050385000000002,121.50978640000001,553926961
大同區,涼州街30號與涼州街口,106-9-18,25.060890899999997,121.51486940000001,554226984
大同區,忠孝橋機車道台北往三重,106-9-22,25.063710399999998,121.5065347,554226987
大同區,民族西路252巷與民族西路口,106-9-1,25.068319600000002,121.5123393,554326997
大同區,民生西路152號,106-12-3,25.0572711,121.5185189,554126977
大同區,長安西路與西寧北路口,106-11-11,25.051480899999998,121.5144918,554026964
大同區,承德路3段與敦煌路口,106-11-18,25.070762300000002,121.518518,554427002
大同區,承德路3段與民族西路口,106-9-24,25.068799,121.51346399999998,554326998
大同區,長安西路99號與長安西路172巷口,106-9-30,25.050684,121.5157861,553926963
大同區,伊寧街77號與民權西路245巷口,106-9-30,25.062904999999997,121.519319,554226989
大同區,承德路2段與南京西路口,106-10-2,25.053328,121.51763229999999,554026969
大同區,鄭州路與西寧北路口,106-8-29,25.050385000000002,121.50978640000001,553926961
大同區,延平北路2段與歸綏街口,106-8-11,25.0582238,121.5105935,554126978
大同區,忠孝西路1段與塔城街口,106-8-16,25.0477266,121.51216399999998,553926955
大同區,承德路2段與民權西路口,106-8-17,25.0629867,121.5182325,554226989
大同區,市民高架道往西第090號燈桿,106-11-21,25.0491806,121.5144925,553926959
大同區,承德路2段與民權西路口東南角,106-12-2,25.062472,121.5185889,554226988
大同區,承德路2段53巷與赤峰街口,106-12-3,25.055275,121.51884820000001,554026973
大同區,民權西路與蘭州街口,106-12-15,25.062889000000002,121.5147047,554226988
大同區,長安西路170號與長安西路172巷口,106-9-7,25.050684,121.5157861,553926963
大同區,民生西路280號,106-9-19,25.0568723,121.5130219,554126975
大同區,民權西路與民權西路160巷口,106-9-20,25.061510300000002,121.5145186,554226985
大同區,民生西路雙連捷運1號出口,106-9-21,25.0579015,121.52060320000001,554126979
大同區,重慶北路2段與民生西路口,106-12-29,25.0569098,121.51359790000001,554126976
大同區,華陰街73號,106-8-30,25.0497273,121.5180371,553926961
大同區,民權西路與承德路3段口,106-9-1,25.0638424,121.5181676,554226990
大同區,長安西路與太原路口,106-9-7,25.051264899999996,121.5154442,554026964
大同區,承德路3段與民族西路口,106-9-8,25.068799,121.51346399999998,554326998
大同區,敦煌路與敦煌路口機慢車道往士林,106-9-8,25.0766366,121.5127632,554527011
大同區,市民高架道第68號燈桿,106-9-12,25.0491806,121.5144925,553926959
大同區,台北橋往三重機車道第66號燈桿,106-9-15,25.0632482,121.50951129999999,554226987
大同區,雙連街與萬全街口,106-9-14,25.057848899999996,121.520473,554126979
大同區,雙連街與萬全街口,106-9-15,25.057848899999996,121.520473,554126979
大同區,環河北路1段三號水門堤外便道停車場外,106-9-19,25.0519062,121.50673049999999,554026963
大同區,承德路3段129巷與承德路3段口,106-9-26,25.067293,121.5184559,554326996
大同區,南京西路75號,106-8-27,25.0532567,121.5186785,554026969
大同區,重慶北路1段與天水路口,106-9-1,25.049577,121.513627,553926960
大同區,承德路1段與華陰街口,106-9-2,25.050481,121.5144612,553926962
大同區,酒泉街234號,106-9-22,25.072043,121.5098338,554427003
大同區,錦西街與錦西街口成淵高中地下停車場前,106-9-26,25.060167800000002,121.51897209999998,554226983
大同區,重慶北路3段205巷與民族西路187巷口,106-8-21,25.0699657,121.5139956,554427000
大同區,延平北路4段233號與延平北路4段235巷口,106-8-26,25.063489899999997,121.51106499999999,554226988
大同區,忠孝西路2段與西寧北路口,106-8-28,25.048573899999997,121.507576,553926956
大同區,長安西路與太原路口,106-8-29,25.051264899999996,121.5154442,554026964
大同區,民權西路與重慶北路2段口,106-9-10,25.0621449,121.51338700000001,554226986
大同區,民生西路281號,106-12-26,25.0571022,121.5134365,554126976
大同區,承德路3段與敦煌路口,106-12-1,25.070762300000002,121.518518,554427002
大同區,南京西路239巷,106-11-30,25.053782100000003,121.5095461,554026968
大同區,延平北路2段與民權西路口,106-12-26,25.0627882,121.51122050000001,554226987
大同區,民生西路與赤峰街口,106-12-30,25.053646399999998,121.51912659999998,554026970
大同區,重慶北路3段與酒泉街口,106-12-14,25.0717546,121.513667,554427003
大同區,寧夏路與平陽街口,106-12-28,25.0551379,121.516998,554026973
大同區,承德路3段與庫倫街口,106-10-27,25.069937799999998,121.5182537,554427001
大同區,承德路3段與庫倫街口,106-12-4,25.069937799999998,121.5182537,554427001
大同區,承德路3段與酒泉街口,106-12-5,25.069937799999998,121.5182537,554427001
大同區,環河北路1段與涼州街口,106-12-11,25.060505,121.50848119999999,554226982
大同區,重慶北路3段與民權西路口,106-11-22,25.063122,121.51371740000002,554226988
大同區,鄭州路145號,106-11-23,25.050969600000002,121.5093209,553926962
大同區,路3段高速公路下方機車引道,106-11-23,25.0782893,121.5132176,554627013
大同區,環河北路1段往北忠孝抽水站前,106-11-29,25.0497488,121.5064757,553926959
大同區,民生西路與迪化街1段口,106-12-1,25.056834,121.509752,554126975
大同區,民生西路與太原路口,106-12-5,25.0570219,121.5167199,554126976
大同區,延平北路4段與敦煌路口,106-12-10,25.105880199999998,121.47792340000002,555227036
大同區,重慶北路3段與酒泉街口,106-12-12,25.0717546,121.513667,554427003
大同區,重慶北路1段與長安西路口,106-12-12,25.051622100000003,121.5138878,554026964
大同區,太原路與長安西路口,106-11-17,25.0513419,121.51557,554026964
大同區,承德路3段與民族西路口,106-11-18,25.068799,121.51346399999998,554326998
大同區,承德路2段與南京西路口,106-11-25,25.053328,121.51763229999999,554026969
大同區,大龍街與重慶北路3段113巷口,106-12-5,25.0673111,121.5159386,554326996
大同區,長安西路287號,106-11-24,25.0521418,121.5095604,554026965
大同區,錦西街與寧夏路口,106-12-4,25.0595395,121.5153219,554126981
大同區,塔城街與鄭州路口,106-11-26,25.050385000000002,121.50978640000001,553926961
大同區,環河北路1段與市民大道1段口,106-12-1,25.0596283,121.5085172,554126980
大同區,延平北路1段與長安西路口,106-11-25,25.052055499999998,121.51188159999998,554026965
大同區,延平北路2段與民生西路口,106-11-25,25.054723000000003,121.511843,554026971
大同區,民權西路266號,106-12-13,25.0627805,121.51214850000001,554226987
大同區,保安街80號,106-12-20,25.058951,121.51186100000001,554126979
大同區,民權西路與承德路3段口,106-12-20,25.0638424,121.5181676,554226990
大同區,環河北路2段與酒泉街口,106-12-26,25.072156500000002,121.50918429999999,554427003
大同區,南京西路與太原路口,106-12-1,25.053588100000002,121.5160989,554026969
大同區,鄭州路與西寧北路口,106-12-20,25.050385000000002,121.50978640000001,553926961
大同區,民族西路97號,106-12-25,25.068722,121.5175017,554326999
大同區,承德路1段與長安西路口,106-12-7,25.050904199999998,121.51696609999999,553926963
大同區,長安西路70號與長安西路口建城國中停車場出入口,106-12-15,25.051576999999998,121.51988130000001,554026966
大同區,環河北路2段與民族西路口,106-12-20,25.068778,121.5092035,554326997
大同區,延平北路4段與迪化街2段口(汙水處理廠),106-12-23,25.0724189,121.5100679,554427003
大同區,環河北路2段與酒泉街口,106-12-11,25.072156500000002,121.50918429999999,554427003
大同區,承德路3段129巷,106-12-11,25.0672908,121.5190011,554326997
大同區,民生西路與承德路3段口,106-12-30,25.0638424,121.5181676,554226990
大同區,民權西路與蘭州街口,106-12-12,25.062889000000002,121.5147047,554226988
大同區,萬全街3號與民生西路171巷口,106-12-1,25.057497,121.51701299999999,554126977
大同區,延平北路2段210巷與延平北路2段口,106-12-1,25.0592799,121.51075,554126980
大同區,環河北路2段279號,106-12-1,25.0705329,121.50947590000001,554427000
大同區,承德路1段與南京西路口,106-12-7,25.053328,121.51763229999999,554026969
大同區,重慶北路3段與民族西路口,106-12-13,25.068799,121.51346399999998,554326998
大同區,延平北路3段與民族西路口,106-12-18,25.0686588,121.51085719999999,554326997
大同區,重慶北路3段113巷與重慶北路3段口,106-12-22,25.0712695,121.51388850000001,554427002
大同區,重慶北路3段18號,106-12-26,25.0800199,121.51321499999999,554627016
大同區,西寧北路與長安西路口,106-10-27,25.0526962,121.50863429999998,554026966
大同區,重慶北路3段340號與敦煌路口,106-10-25,25.076233,121.51351340000001,554527010
大同區,承德路3段與庫倫街口,106-12-25,25.069937799999998,121.5182537,554427001
大同區,長安西路與長安西路52巷口,106-12-30,25.0496329,121.5196564,553926961
大同區,承德路3段282號,106-10-12,25.0738461,121.51932839999999,554527008
大同區,承德路3段與昌吉街口,106-10-3,25.0660079,121.51815330000001,554326994
大同區,承德路1段與市民大道1段口,106-11-1,25.050385000000002,121.50978640000001,553926961
大同區,延平北路3段與迪化街2段149巷口,106-10-3,25.055104699999998,121.5100372,554026971
大同區,承德路3段與昌吉街口,106-10-8,25.0660079,121.51815330000001,554326994
大同區,延平北路3段與民權西路口,106-10-14,25.0631105,121.5112207,554226987
大同區,重慶北路3段137巷與民族西路182巷口,106-10-22,25.0699509,121.514055,554427000
大同區,承德路3段208巷與酒泉街50巷口,106-10-22,25.0706667,121.5183716,554427002
大同區,台北橋與台北橋口機車道往三重,106-10-13,25.063710399999998,121.5065347,554226987
大同區,南京西路262巷與南京西路口,106-10-16,25.053373,121.51526100000001,554026968
大同區,長安西路304號,106-10-17,25.051881100000003,121.512345,554026965
大同區,西寧北路112號與西寧北路83巷口旁無名巷,106-10-28,25.0562449,121.5088636,554126973
大同區,承德路1段與鄭州路口,106-10-5,25.0490476,121.51810990000001,553926960
大同區,南京西路與塔城街口,106-10-21,25.050385000000002,121.50978640000001,553926961
大同區,雙連街與錦西街口,106-10-22,25.060271,121.52028899999999,554226984
大同區,長安西路建城國中地下停車場前,106-9-19,25.051576999999998,121.51988130000001,554026966
大同區,台北橋機車道往三重方向,106-10-30,25.063710399999998,121.5065347,554226987
大同區,重慶北路3段與重慶北路3段295巷口,106-11-7,25.0745142,121.51506029999999,554527008
大同區,承德路3段與民權西路口,106-11-12,25.0629867,121.5182325,554226989
大同區,重慶北路3段與重慶北路3段236巷口,106-11-15,25.0706323,121.5118242,554427001
大同區,延平北路3段與民族西路口,106-11-20,25.0686588,121.51085719999999,554326997
大同區,重慶北路1段18號與重慶北路1段口,106-11-5,25.0502393,121.51335549999999,553926961
大同區,涼州街與安西街口,106-11-9,25.060890899999997,121.51486940000001,554226984
大同區,民權西路266號與民權西路口,106-11-16,25.0627805,121.51214850000001,554226987
大同區,承德橋往南下橋處,106-11-16,25.0776942,121.521069,554527014
大同區,環河北路2段145巷與環河北路2段口,106-10-4,25.0836033,121.50688899999999,554727019
大同區,酒泉街50巷與酒泉街口,106-10-6,25.0712997,121.51672930000001,554427003
大同區,環河北路2段與昌吉街口,106-10-17,25.0658326,121.5088817,554326992
大同區,迪化街1段184號,106-10-23,25.058539,121.50953500000001,554126978
大同區,承德路3段212-1號,106-10-24,25.071285,121.51806,554427003
大同區,延平北路2段240號,106-10-24,25.059948000000002,121.511292,554126981
大同區,庫倫街13巷與庫倫街口,106-10-25,25.0723119,121.5173322,554427005
大同區,民權西路與蘭州街口,106-10-30,25.062889000000002,121.5147047,554226988
大同區,長安西路與塔城街口,106-11-5,25.050385000000002,121.50978640000001,553926961
大同區,承德路3段與敦煌路口,106-11-10,25.070762300000002,121.518518,554427002
大同區,忠孝西路2段與塔城街口,106-12-5,25.0476299,121.5127104,553926955
大同區,延平北路4段與迪化街2段口,106-9-29,25.107287300000003,121.4718937,555227035
大同區,民權西路與環河北路1段口,106-11-17,25.0836033,121.50688899999999,554727019
大同區,鄭州路與西寧北路口,106-11-19,25.050385000000002,121.50978640000001,553926961
大同區,赤峰街47巷與赤峰街口,106-10-1,25.055316100000002,121.5196351,554026974
大同區,延平北路1段與長安西路口,106-10-1,25.052055499999998,121.51188159999998,554026965
大同區,鄭州路與塔城街口,106-10-4,25.050385000000002,121.50978640000001,553926961
大同區,民生西路292號與民生西路口,106-10-26,25.057842,121.518325,554126978
大同區,台北橋與台北橋口往三重機車道,106-10-27,25.063710399999998,121.5065347,554226987
大同區,哈密街59巷21弄與哈密街59巷口,106-11-11,25.074387899999998,121.5156389,554527008
大同區,赤峰街12巷1號與赤峰街口,106-11-14,25.053646399999998,121.51912659999998,554026970
大同區,寧夏路126號,106-11-16,25.0602128,121.51442250000001,554226982
大同區,重慶北路2段8號,106-11-16,25.054413,121.51414199999999,554026970
大同區,環河快速道路1段匝道 忠孝抽水站旁,106-10-5,25.0836033,121.50688899999999,554727019
大同區,鄭州路與塔城街口,106-10-6,25.050385000000002,121.50978640000001,553926961
大同區,民族西路214號,106-10-18,25.068503200000002,121.5132606,554326997
大同區,重慶北路3段236巷,106-10-23,25.0705484,121.5127784,554427001
大同區,長安西路85巷,106-10-25,25.0511275,121.5165102,554026964
大同區,延平北路2段與南京西路口,106-11-24,25.054845999999998,121.511773,554026971
大同區,民權西路與承德路2段口,106-11-29,25.062472,121.5185889,554226988
大同區,延平北路3段48號,106-11-30,25.064846399999997,121.5109973,554326990
大同區,民權西路與延平北路2段口,106-12-1,25.0621,121.511175,554226985
大同區,鄭州路31號,106-12-6,25.049465899999998,121.5141187,553926960
大同區,承德路3段與民權西路口,106-12-6,25.0629867,121.5182325,554226989
大同區,環河北路1段與環河北路1段口水門,106-10-27,25.0609678,121.5083618,554226982
大同區,延平北路3段68號,106-11-14,25.065493399999998,121.51095149999999,554326992
大同區,環河北路3段(高公橋下),106-12-7,25.0836033,121.50688899999999,554727019
大同區,南京西路與華亭街口,106-12-8,25.053906299999998,121.5131365,554026969
大同區,承德路3段285號,106-11-1,25.0732086,121.5195399,554427007
大同區,民權西路95號,106-11-7,25.0630824,121.5187506,554226989
大同區,延平北路2段239號太平國小對面,106-11-12,25.061383,121.511449,554226984
大同區,南京西路與太原路口,106-11-12,25.053588100000002,121.5160989,554026969
大同區,延平北路3段與昌吉街口,106-11-13,25.0682622,121.51089979999999,554326996
大同區,民權西路與民權西路225巷口大橋頭1號出口,106-11-13,25.0643302,121.5119253,554226990
大同區,鄭州路與西寧北路口,106-11-17,25.050385000000002,121.50978640000001,553926961
大同區,民權西路與延平北路2段口,106-11-26,25.0621,121.511175,554226985
大同區,鄭州路與西寧北路口,106-12-1,25.050385000000002,121.50978640000001,553926961
大同區,延平北路1段與甘谷街口,106-12-14,25.0527697,121.51182890000001,554026966
大同區,民權西路245巷與延平北路3段18巷口,106-12-20,25.0673044,121.51105120000001,554326995
大同區,民族西路120號,106-10-26,25.068407999999998,121.51682450000001,554326998
大同區,民權西路與承德路2段口,106-12-3,25.062472,121.5185889,554226988
大同區,民權西路136號,106-11-7,25.062735399999998,121.5164841,554226988
大同區,西寧北路與忠孝西路2段口,106-11-18,25.0526962,121.50863429999998,554026966
大同區,重慶北路3段與民族西路口,106-11-19,25.068799,121.51346399999998,554326998
大同區,延平北路3段與延平北路3段113巷口,106-10-20,25.0673044,121.51105120000001,554326995
大同區,忠孝橋往三重機車道(東往西方向),106-10-26,25.049878600000003,121.5061018,553926959
大同區,重慶北路1段與鄭州路口,106-11-24,25.0487715,121.51631450000001,553926959
大同區,民權西路與台北橋口往三重機車道,106-11-13,25.063710399999998,121.5065347,554226987
大同區,南京西路239巷與塔城街口,106-11-15,25.0532102,121.5122112,554026967
大同區,台北橋往三重機車道,106-11-17,25.063710399999998,121.5065347,554226987
大同區,西寧北路(忠孝國中旁),106-12-12,25.051247,121.5082165,554026962
大同區,民權西路與迪化街1段口,106-10-18,25.062178,121.50932399999999,554226985
大同區,延平北路2段與民生西路口,106-10-30,25.054723000000003,121.511843,554026971
大同區,重慶北路2段與歸綏街口,106-9-20,25.0580364,121.5133116,554126978
大同區,承德路3段214巷與承德路3段口,106-11-21,25.0638424,121.5181676,554226990
大同區,忠孝西路1段與塔城街口,106-11-26,25.0477266,121.51216399999998,553926955
大同區,重慶北路3段與伊寧街口,106-11-27,25.0646898,121.513567,554326991
大同區,大龍街85巷與大龍街口,106-11-27,25.0663713,121.51668490000002,554326994
大同區,民權西路266號與民權西路口迴轉道,106-11-27,25.0637914,121.52264270000002,554226991
大同區,承德路2段與錦西街口,106-12-1,25.060231299999998,121.51878980000001,554226983
大同區,鄭州路與延平北路1段口,106-12-2,25.048754000000002,121.510948,553926957
大同區,民權西路127號,106-12-2,25.0631125,121.51726670000001,554226989
大同區,敦煌路142號與敦煌路口迴轉道,106-12-4,25.0502326,121.51007460000001,553926960
大同區,延平北路3段24號,106-12-4,25.063516,121.51129399999999,554226988
大同區,環河北路1段玉泉公園前,106-11-9,25.0497229,121.507347,553926959
大同區,南京西路與太原路口,106-11-8,25.053588100000002,121.5160989,554026969
大同區,哈密街96號與哈密街83巷口,106-11-7,25.0732069,121.5155395,554427006
大同區,長安西路與太原路口,106-11-6,25.051264899999996,121.5154442,554026964
大同區,環河北路1段與南京西路口,106-11-12,25.053735600000003,121.50750049999999,554026968
大同區,重慶北路3段與民族西路口,106-11-18,25.068799,121.51346399999998,554326998
大同區,承德路1段與華陰街口,106-11-19,25.050481,121.5144612,553926962
大同區,鄭州路與塔城街口,106-11-10,25.050385000000002,121.50978640000001,553926961
大同區,延平北路1段與鄭州路口,106-11-20,25.0508285,121.5119395,553926962
大同區,鄭州路137號,106-12-6,25.0504599,121.510159,553926961
大同區,太原路與南京西路口,106-11-2,25.053588100000002,121.5160989,554026969
大同區,延平北路2段與民權西路口,106-11-27,25.0627882,121.51122050000001,554226987
大同區,重慶北路2段與歸綏街口,106-11-27,25.0580364,121.5133116,554126978
大同區,環河北路2段與敦煌路口,106-12-4,25.070524399999996,121.5091986,554427000
大同區,承德路3段225巷與承德路3段口,106-12-1,25.0638424,121.5181676,554226990
大同區,台北橋往台北機車道,106-12-19,25.063710399999998,121.5065347,554226987
大同區,民權西路與蘭州街口,106-11-11,25.062889000000002,121.5147047,554226988
大同區,延平北路2段247巷與延平北路2段口口,106-11-15,25.062236,121.511551,554226986
大同區,大龍街223號,106-11-17,25.070734899999998,121.515945,554427002
大同區,民權西路與承德路2段口,106-12-4,25.062472,121.5185889,554226988
大同區,大稻埕堤外便道中興橋下機車道,106-11-30,25.0566228,121.50717959999999,554126974
大同區,民生西路291號,106-11-29,25.0571068,121.5131876,554126976
大同區,鄭州路與西寧北路口,106-11-22,25.050385000000002,121.50978640000001,553926961
大同區,承德路3段與敦煌路口,106-11-2,25.070762300000002,121.518518,554427002
大同區,延平北路4段282巷與延平北路4段口,106-10-27,25.063489899999997,121.51106499999999,554226988
大同區,重慶北路2段與歸綏街口,106-11-3,25.0580364,121.5133116,554126978
大同區,承德路1段與市民大道1段口,106-11-8,25.050385000000002,121.50978640000001,553926961
大同區,鄭州路與太原路11巷口,106-11-8,25.0489917,121.51569769999999,553926959
大同區,歸綏街169號與歸綏街160巷口,106-11-15,25.058170999999998,121.50856499999999,554126977
大同區,民權西路與重慶北路2段口,106-11-16,25.0621449,121.51338700000001,554226986
大同區,延平北路1段58號,106-11-16,25.0670589,121.511082,554326994
大同區,承德路3段64號,106-8-23,25.06557,121.5180996,554326993
大同區,台北橋與台北橋口往三重機車道,106-8-28,25.063710399999998,121.5065347,554226987
大同區,重慶北路3段與民權西路口,106-9-10,25.063122,121.51371740000002,554226988
大同區,承德路3段與哈密街口,106-9-11,25.0729873,121.513597,554427005
大同區,民族西路303號,106-9-15,25.06889,121.5098803,554326997
大同區,延平北路2段與涼州街口,106-9-16,25.060562,121.511509,554226982
大同區,寧夏路與涼州街口,106-9-9,25.060890899999997,121.51486940000001,554226984
大同區,寧夏路104巷與寧夏路104巷口家樂福停車場出口,106-9-13,25.0589075,121.5147798,554126980
大同區,承德路1段與鄭州路口,106-9-14,25.0490476,121.51810990000001,553926960
大同區,承德路3段與敦煌路口,106-9-17,25.070762300000002,121.518518,554427002
大同區,承德路2段與民生西路口,106-9-21,25.055966,121.51839009999999,554126975
大同區,台北橋往三重機車道,106-9-23,25.063710399999998,121.5065347,554226987
大同區,民族西路與大龍街口,106-8-28,25.063097,121.51653999999999,554226988
大同區,延平北路1段24號,106-8-29,25.0506147,121.51187069999999,553926962
大同區,承德路3段12號,106-8-29,25.063863199999997,121.51808319999999,554226990
大同區,鄭州路與塔城街口,106-8-29,25.050385000000002,121.50978640000001,553926961
大同區,延平北路2段232號,106-8-30,25.059775,121.511303,554126981
大同區,鄭州路與塔城街口,106-9-3,25.050385000000002,121.50978640000001,553926961
大同區,西寧北路與忠孝西路2段口忠孝橋頭，往新北方向,106-9-4,25.0526962,121.50863429999998,554026966
大同區,台北橋機車引道三重往台北,106-9-16,25.063710399999998,121.5065347,554226987
大同區,承德路2段與南京西路口,106-9-29,25.053328,121.51763229999999,554026969
大同區,雙連街與雙連街65巷口,106-10-5,25.0577926,121.51921580000001,554126979
大同區,大龍街與民權西路口,106-10-6,25.063058899999998,121.5159765,554226988
大同區,延平北路3段32-1號,106-10-11,25.063516,121.51129399999999,554226988
大同區,民生西路81號與赤峰街口,106-9-21,25.0579015,121.52060320000001,554126979
大同區,台北橋機車道往西上橋處,106-9-22,25.063710399999998,121.5065347,554226987
大同區,延平北路3段與伊寧街口,106-9-25,25.064535,121.511022,554226990
大同區,環河北路1段429號對面,106-9-27,25.062022,121.508719,554226985
大同區,長安西路與西寧北路口,106-9-29,25.051480899999998,121.5144918,554026964
大同區,南京西路與塔城街口,106-9-27,25.050385000000002,121.50978640000001,553926961
大同區,重慶北路3段與民族西路口,106-9-28,25.068799,121.51346399999998,554326998
大同區,安西街與涼州街口,106-10-9,25.060890899999997,121.51486940000001,554226984
大同區,大龍街91巷與大龍街91巷18弄口口,106-9-6,25.0663713,121.51668490000002,554326994
大同區,重慶北路3段81號,106-9-13,25.0667185,121.5139004,554326994
大同區,鄭州路與西寧北路口,106-9-18,25.050385000000002,121.50978640000001,553926961
大同區,台北橋機車道往台北,106-9-21,25.063710399999998,121.5065347,554226987
大同區,忠孝橋機車道往三重,106-10-2,25.063710399999998,121.5065347,554226987
大同區,重慶北路3段338巷,106-10-2,25.076060000000002,121.5136689,554527010
大同區,長安西路與西寧北路口,106-10-2,25.051480899999998,121.5144918,554026964
大同區,延平北路2段60巷與延平北路2段61巷口口,106-9-24,25.0632792,121.5108456,554226987
大同區,環河北路1段與鄭州路口,106-9-21,25.0596283,121.5085172,554126980
大同區,民生西路與迪化街1段口,106-9-20,25.056834,121.509752,554126975
大同區,鄭州路29巷與鄭州路口口,106-9-19,25.049597,121.514177,553926960
大同區,敦煌路慶昌橋第26號燈桿前,106-9-2,25.0764609,121.5101405,554527010
大同區,民族西路147號,106-9-7,25.0687437,121.516209,554326998
大同區,哈密街59巷31弄與敦煌路88巷口,106-9-6,25.0749434,121.51645490000001,554527009
大同區,重慶北路3段高公橋前226號燈桿,106-9-15,25.0712695,121.51388850000001,554427002
大同區,承德路3段與民族西路口,106-9-21,25.068799,121.51346399999998,554326998
大同區,南京西路25巷18號,106-10-4,25.054623,121.52036000000001,554026972
大同區,長安西路230號,106-10-5,25.0513797,121.5144685,554026964
大同區,延平北路4段179巷與延平北路4段口,106-9-1,25.063489899999997,121.51106499999999,554226988
大同區,重慶北路3段120巷2段,106-8-29,25.0671628,121.5133075,554326995
大同區,承德路2段88號,106-8-29,25.0632571,121.5180676,554226989
大同區,忠孝西路2段與西寧北路口,106-8-30,25.048573899999997,121.507576,553926956
大同區,承德路3段與酒泉街口,106-9-10,25.069937799999998,121.5182537,554427001
大同區,承德路3段與庫倫街口,106-9-10,25.069937799999998,121.5182537,554427001
大同區,忠孝西路2段13號,106-9-11,25.0484933,121.50921170000001,553926956
大同區,民樂街與永昌街口,106-9-21,25.055545600000002,121.5108922,554026972
大同區,延平北路3段113巷與迪化街口,106-9-22,25.068216800000002,121.5108882,554326996
大同區,保安街58號,106-9-27,25.059013,121.51253799999999,554126980
大同區,寧夏路與平陽街口,106-12-5,25.0551379,121.516998,554026973
大同區,承德路3段與敦煌路口,106-10-19,25.070762300000002,121.518518,554427002
大同區,長安西路37號地下停車場B2,106-12-15,25.051576999999998,121.51988130000001,554026966
大同區,鄭州路139號,106-12-23,25.0504907,121.5101047,553926961
大同區,重慶北路3段120巷9號與昌吉街95巷口,106-12-28,25.067296,121.5131183,554326995
大同區,大稻埕堤外便道停車場,106-12-30,25.0519062,121.50673049999999,554026963
大同區,承德路2段與民生西路口,106-12-30,25.055966,121.51839009999999,554126975
大同區,重慶北路2段與民生西路口,106-9-11,25.0569098,121.51359790000001,554126976
大同區,延平北路1段與長安西路口,106-9-4,25.052055499999998,121.51188159999998,554026965
大同區,延平北路2段與涼州街口,106-9-23,25.060562,121.511509,554226982
大同區,承德路2段211號前,106-9-25,25.0632571,121.5180676,554226989
大同區,承德路3段與敦煌路口,106-10-1,25.070762300000002,121.518518,554427002
大同區,長安西路與西寧北路口,106-10-1,25.051480899999998,121.5144918,554026964
大同區,延平北路2段與民生西路口,106-10-18,25.054723000000003,121.511843,554026971
大同區,重慶北路1段與長安西路口,106-10-23,25.051622100000003,121.5138878,554026964
大同區,民生西路208號,106-10-17,25.056885100000002,121.51507990000002,554126976
萬華區,康定路22號,106-1-8,25.0450833,121.50286489999999,553826947
萬華區,漢口街2段73號,106-1-11,25.046163699999997,121.50523770000001,553826950
大同區,大龍街275號,106-10-12,25.0727623,121.5161793,554427005
大同區,重慶北路3段與民族西路口,106-10-12,25.068799,121.51346399999998,554326998
大同區,重慶北路2段與民生西路口,106-9-22,25.0569098,121.51359790000001,554126976
大同區,南京西路325-2號,106-9-22,25.0537258,121.5070966,554026967
大同區,塔城街24巷前,106-11-23,25.050684699999998,121.5102243,553926962
大同區,延平北路3段與民族西路口,106-9-28,25.0686588,121.51085719999999,554326997
大同區,民族西路與重慶北路3段口,106-10-6,25.0686418,121.5138172,554326998
大同區,民生西路與赤峰街口,106-10-4,25.053646399999998,121.51912659999998,554026970
大同區,承德路2段46號,106-10-4,25.056186,121.51796200000001,554126975
大同區,延平北路2段與民權西路口,106-10-11,25.0627882,121.51122050000001,554226987
大同區,環河北路1段與鄭州路口,106-10-11,25.0596283,121.5085172,554126980
大同區,錦西街與民生西路45巷口,106-10-11,25.060271,121.52028899999999,554226984
大同區,錦西街38巷與萬全街3巷口,106-10-3,25.0584373,121.5196245,554126980
大同區,忠孝西路2段與塔城街口,106-11-27,25.0476299,121.5127104,553926955
大同區,承德路3段與民族西路口口,106-11-29,25.068799,121.51346399999998,554326998
大同區,甘谷街與延平北路1段口,106-11-30,25.0527697,121.51182890000001,554026966
大同區,南京西路與太原路口,106-10-2,25.053588100000002,121.5160989,554026969
大同區,民權西路與迪化街2段口,106-7-3,25.053855600000002,121.5100938,554026968
大同區,長安西路53巷與長安西路口前,106-10-16,25.051023,121.51768100000001,553926964
大同區,民樂街37號與民樂街口,106-10-29,25.0582238,121.5105935,554126978
大同區,重慶北路3段236巷與重慶北路3段236巷45弄口口,106-11-17,25.0706323,121.5118242,554427001
大同區,環河北路1段395號,106-10-6,25.061492,121.508747,554226984
大同區,寧夏路與民生西路口,106-10-7,25.056956399999997,121.51568329999999,554126976
大同區,民權西路與延平北路2段口,106-10-8,25.0621,121.511175,554226985
大同區,迪化街1段36號,106-10-19,25.0547948,121.51002140000001,554026970
大同區,民權西路194號,106-10-20,25.0627713,121.5144137,554226987
大同區,鄭州路與塔城街口,106-10-26,25.050385000000002,121.50978640000001,553926961
大同區,1段312巷口(迪化街1段293號前),106-10-27,25.0616926,121.5093145,554226984
大同區,大龍街與大龍街215巷口,106-10-13,25.070576000000003,121.516365,554427002
大同區,承德路2段與民權西路口,106-10-11,25.0629867,121.5182325,554226989
大同區,長安西路與南京西路64巷口,106-10-16,25.052357,121.51933500000001,554026967
大同區,承德路2段175巷,106-10-23,25.058845,121.51863119999999,554126981
大同區,通河西街1段百齡左岸254燈桿,106-10-30,25.0807959,121.513962,554627017
大同區,敦煌路19號重慶國中,106-10-30,25.0759168,121.51802990000002,554527011
大同區,承德路2段與萬全街口,106-9-6,25.0584518,121.51827549999999,554126980
大同區,大龍街159巷20號與大龍街159巷18弄口,106-9-25,25.067977,121.5168249,554326997
大同區,南京西路與西寧北路口,106-10-1,25.0538174,121.5098847,554026968
大同區,民權西路與重慶北路2段口加油站入口,106-9-30,25.0630909,121.5135996,554226988
大同區,重慶北路2段與涼州街口,106-9-29,25.060890899999997,121.51486940000001,554226984
大同區,民生西路與寧夏路口,106-10-6,25.056956399999997,121.51568329999999,554126976
大同區,雙連街5號,106-10-18,25.0579928,121.51920559999999,554126979
大同區,迪化街2段與民族西路口,106-10-19,25.0686588,121.51085719999999,554326997
大同區,承德路2段239號,106-10-3,25.0624719,121.51858899999999,554226988
大同區,重慶北路1段與民權西路口,106-10-9,25.063738600000004,121.51381359999999,554226989
大同區,歸綏街231號,106-10-10,25.0583912,121.5110992,554126978
大同區,南京西路與承德路1段口,106-10-15,25.053328,121.51763229999999,554026969
大同區,承德路3段與酒泉街口,106-10-21,25.069937799999998,121.5182537,554427001
大同區,忠孝西路1段與西寧北路口,106-11-9,36.617134,101.778223,809710640
大同區,重慶北路3段236巷與民族西路221巷口口,106-10-29,25.0696176,121.5134217,554426999
大同區,重慶北路2段與歸綏街口,106-10-15,25.0580364,121.5133116,554126978
大同區,重慶北路3段296巷與迪化街2段口,106-11-10,25.0735565,121.51324059999999,554427006
大同區,安西街與延平北路2段272巷口,106-11-13,25.0621,121.511175,554226985
大同區,承德路3段與庫倫街口,106-11-26,25.069937799999998,121.5182537,554427001
大同區,萬全街100號與民生西路171巷口,106-12-23,25.057497,121.51701299999999,554126977
萬華區,艋舺大道120巷8號,106-2-6,25.032988,121.50223700000001,553526916
萬華區,桂林路246巷42弄38號,106-2-8,25.0361503,121.49225030000001,553626922
萬華區,東園街與萬大路口,106-2-9,25.021585899999998,121.49836509999999,553326883
萬華區,西藏路121號,106-1-1,25.029536,121.502601,553526907
萬華區,西園路2段與寶興街口,106-4-11,25.026501,121.49378,553426896
萬華區,堤外便道往南龍山忠孝3-03號燈桿,106-4-13,25.0307777,121.4882044,553526907
萬華區,桂林路與華西街口,106-1-1,25.0384734,121.49842269999999,553726930
萬華區,開封街2段與堤外便道口往北龍山忠孝3-03桿,106-1-2,25.0453633,121.5055211,553826948
萬華區,西園路2段111巷,106-1-16,25.0296396,121.4967902,553526906
萬華區,西園路2段與西藏路口,106-1-1,25.0277299,121.49437990000001,553426900
萬華區,和平西路3段與環河南路2段口,106-3-20,25.0354727,121.4945116,553626921
萬華區,中興橋往台北市機車道,106-2-9,25.0504831,121.49017079999999,553926957
萬華區,萬大路與富民路口,106-4-27,25.0189277,121.498283,553226875
萬華區,艋舺大道326巷與艋舺大道口,106-4-4,25.031074,121.4940485,553526909
萬華區,興義街與西園路2段372巷口,106-8-17,25.0251326,121.491272,553426892
萬華區,武昌街2段118-1號,106-8-26,25.045218,121.50428799999999,553826948
萬華區,91巷口(大理街89號前),106-1-3,25.0348467,121.49851389999999,553626920
萬華區,桂林路水門口,106-3-29,25.038119899999998,121.50670790000001,553726931
萬華區,康定路287巷與康定路口,106-3-30,25.0341179,121.50165390000001,553626919
萬華區,長順街46巷41號,106-4-1,25.0308486,121.4889601,553526908
萬華區,西園路2段與寶興街口,106-4-2,25.026501,121.49378,553426896
萬華區,忠孝西路2段16巷與忠孝西路2段口口,106-4-6,25.0476299,121.5127104,553926955
萬華區,西藏路與莒光路299巷口口,106-4-7,25.0292849,121.49918219999999,553526905
萬華區,西藏路與西園路2段320巷55弄口,106-4-10,25.0284821,121.4921541,553426902
萬華區,堤外便道燈桿龍A06,106-4-13,25.0307777,121.4882044,553526907
萬華區,艋舺大道與西園路2段口東往西近西園路2段,106-1-4,25.03248,121.49817390000001,553526914
萬華區,西園路2段161號,106-1-5,25.0288706,121.49588870000001,553526904
萬華區,貴陽街2段與堤外便道口,106-1-6,25.0399855,121.5024804,553726935
萬華區,西園路2段與莒光路口,106-1-9,25.0310901,121.49688909999998,553526910
萬華區,康定路與武昌街2段口,106-1-23,25.045576899999997,121.50316740000001,553826948
萬華區,和平西路3段312號,106-2-23,25.0352907,121.4928861,553626920
萬華區,萬大路252號,106-2-28,25.0261545,121.50032399999999,553426897
萬華區,環河南路2段與堤外便道北側附近口機車道,106-3-1,25.0307777,121.4882044,553526907
萬華區,萬大路與華中橋口往台北機車道,106-3-16,25.022861300000002,121.49945079999999,553326887
萬華區,武成街35巷與武成街口,106-3-26,25.017855100000002,121.49492620000001,553226871
萬華區,寶興街228號,106-5-9,25.022159600000002,121.49575779999999,553326884
萬華區,中華路1段90號2段,106-5-10,25.0475499,121.5106925,553926955
萬華區,康定路與永福街口,106-1-12,25.035035999999998,121.502494,553626922
萬華區,忠孝西路2段與環河南路1段口,106-1-19,25.0291941,121.49047040000002,553526903
萬華區,萬大路340號,106-2-3,25.023955100000002,121.4999383,553326890
萬華區,中華路1段14號1段,106-2-9,25.0475499,121.5106925,553926955
萬華區,東園街35巷與東園街口口,106-2-9,25.0264476,121.49490220000001,553426896
萬華區,中華路1段與成都路口,106-3-30,25.0475499,121.5106925,553926955
萬華區,環河南路1段與內江街口,106-1-10,25.041909399999998,121.5000707,553726939
萬華區,長沙街2段68號,106-1-11,25.040469899999998,121.505443,553726936
萬華區,忠孝西路2段16巷,106-1-3,25.047951,121.50818390000002,553926955
萬華區,寶興街222巷,106-1-17,25.0220849,121.4947131,553326884
萬華區,環河南路1段與康定路口,106-1-21,25.0475336,121.5059613,553926953
萬華區,西園路2段與寶興街口,106-1-21,25.026501,121.49378,553426896
萬華區,莒光路與萬大路口,106-1-22,25.029586600000002,121.5003811,553526907
萬華區,堤外便道南往北(DSR373牌面前),106-1-23,25.0307777,121.4882044,553526907
萬華區,環河南路2段338號,106-1-26,25.0381142,121.4965885,553726928
萬華區,長泰街246巷與寶興街222巷口,106-1-28,25.0220849,121.4947131,553326884
萬華區,華中橋往台北市機車道(002牌面前),106-2-2,25.0138094,121.4954551,553126858
萬華區,萬大路486巷10弄11號,106-2-1,25.020147,121.497227,553326878
萬華區,西藏路196號,106-2-6,25.0300213,121.5028635,553526908
萬華區,富民路155巷49號,106-2-14,25.0186557,121.50128899999999,553226875
萬華區,華江橋機車道往台北市方向,106-2-14,25.034556600000002,121.489337,553626918
萬華區,艋舺大道92號,106-2-15,25.033265,121.5029575,553626917
萬華區,堤外便道南往北(DSR396牌面前),106-2-15,25.0307777,121.4882044,553526907
萬華區,峨眉街與康定路口,106-2-26,25.0447182,121.5031916,553826946
萬華區,堤外便道北往南(DSR-252牌面前),106-3-1,25.0307777,121.4882044,553526907
萬華區,華江橋機車道南往北(311035燈桿前),106-3-2,25.0355264,121.48993159999999,553626920
萬華區,忠孝橋往台北市下橋處,106-3-12,25.063710399999998,121.5065347,554226987
萬華區,成都路98號,106-3-13,25.043172,121.5035971,553826943
萬華區,萬板大橋往台北市汽車道下橋處,106-3-16,25.029303600000002,121.48629840000002,553526903
萬華區,大理街118巷與大理街口,106-3-17,25.033907,121.494421,553626917
萬華區,成都路與漢中街口,106-3-17,25.0420955,121.50734969999999,553826941
萬華區,青年路58號,106-3-18,25.024654,121.50276399999998,553426893
萬華區,萬大路與富民路口,106-3-21,25.0189277,121.498283,553226875
萬華區,和平西路3段與桂林路246巷口,106-3-23,25.035680199999998,121.49093729999998,553626921
萬華區,武成街63巷12弄,106-4-1,25.0187133,121.4940707,553226873
萬華區,開封街2段42巷與漢口街2段口,106-4-6,25.045489,121.50708600000002,553826949
萬華區,中華路1段88號,106-4-10,25.0450203,121.50857890000002,553826948
萬華區,西園路1段58號,106-4-17,25.0397259,121.49977379999999,553726933
萬華區,中華路2段416巷66弄,106-3-3,25.0277242,121.5038008,553426902
萬華區,南寧路與廣州街口,106-4-17,25.036731,121.4976133,553626925
萬華區,廣州街與華西街口,106-4-17,25.036709600000002,121.49827659999998,553626925
萬華區,西寧南路與內江街口,106-4-26,25.041594800000002,121.5058735,553726939
萬華區,武昌街2段87號,106-4-26,25.0442823,121.50833090000002,553826946
萬華區,德昌街154巷與民和街口,106-4-27,25.024213,121.495231,553426890
萬華區,環河南路2段162號,106-4-30,25.0351938,121.49393880000001,553626920
萬華區,環河南路1段與康定路口,106-5-5,25.0475336,121.5059613,553926953
萬華區,和平西路3段109巷,106-5-5,25.0356342,121.5004179,553626923
萬華區,德昌街261巷口,106-5-6,25.022534,121.49241599999999,553326884
萬華區,西園路2段與寶興街口,106-5-6,25.026501,121.49378,553426896
萬華區,中華路2段416巷與西藏路125巷口,106-1-11,25.0291201,121.49903590000002,553526905
萬華區,廣州街88號,106-1-12,25.0364884,121.50260220000001,553626926
萬華區,廣州街70號,106-1-16,25.0364866,121.50304560000001,553626926
萬華區,中華路1段與開封街2段口,106-1-17,25.0475499,121.5106925,553926955
萬華區,忠孝西路2段16巷,106-1-21,25.047951,121.50818390000002,553926955
萬華區,西園路2段與東園街口,106-1-21,25.0282005,121.49519,553426902
萬華區,雙園街67巷,106-3-18,25.0306526,121.4946135,553526908
萬華區,西藏路環南市場甲棟前,106-3-26,25.0291941,121.49047040000002,553526903
萬華區,萬大路與興寧街口,106-3-28,25.0320279,121.50047690000001,553526913
萬華區,萬大路408巷,106-4-2,25.021656399999998,121.49793009999999,553326883
萬華區,西園路1段與廣州街口,106-4-15,25.037972,121.499495,553726929
萬華區,西藏路與艋舺大道口,106-5-22,25.032893100000003,121.49769009999999,553526915
萬華區,艋舺大道120巷對面,106-5-25,25.0320492,121.5022591,553526914
萬華區,艋舺大道與西園路2段口,106-5-31,25.032893100000003,121.49769009999999,553526915
萬華區,桂林路與梧州街口,106-5-31,25.036116800000002,121.49751409999999,553626924
萬華區,莒光路342號,106-6-1,25.031277,121.4971314,553526911
萬華區,中華路1段與洛陽街口,106-6-11,25.0475336,121.5059613,553926953
萬華區,西園路2段與西藏路口,106-4-3,25.0277299,121.49437990000001,553426900
萬華區,莒光路299巷與萬大路90巷口,106-6-1,25.030249800000004,121.49915049999998,553526908
萬華區,和平西路2段與艋舺大道口,106-6-1,25.032893100000003,121.49769009999999,553526915
萬華區,西園路2段263號,106-4-28,25.025714,121.4925885,553426894
萬華區,環河南路2段50巷,106-4-29,25.037857100000004,121.49611270000001,553726928
萬華區,長順街46巷43號,106-5-9,25.030855300000002,121.4888991,553526908
萬華區,西園路1段與和平西路3段口,106-2-27,25.035621399999997,121.4992307,553626923
萬華區,萬大路486巷59弄11號,106-2-28,25.020032399999998,121.49570729999999,553326878
萬華區,中華路1段與南寧路口,106-3-10,25.044669600000002,121.5086764,553826947
萬華區,艋舺大道與興寧街口,106-3-13,25.0322329,121.5014159,553526914
萬華區,寶興街68巷口,106-3-24,25.0264476,121.49490220000001,553426896
萬華區,西園路2段139號,106-3-28,25.0294087,121.4961612,553526905
萬華區,華江橋往北市機車道下橋處,106-5-7,25.0262857,121.4970294,553426896
萬華區,西園路2段281巷,106-5-10,25.024235,121.49223789999999,553426889
萬華區,堤外便道北往南(DSR-362牌面前),106-5-13,25.0307777,121.4882044,553526907
萬華區,環河南路1段與貴陽街2段口,106-5-20,25.047269,121.504476,553926953
萬華區,華江橋往台北市機車道(華江016牌面前),106-5-25,25.0279587,121.4971355,553426901
萬華區,忠孝西路2段16巷,106-5-25,25.047951,121.50818390000002,553926955
萬華區,康定路與永福街口,106-5-30,25.035035999999998,121.502494,553626922
萬華區,堤外便道南往北(DSR404牌面前),106-6-7,25.0307777,121.4882044,553526907
萬華區,光復橋往新北市第302045號燈桿處,106-6-19,25.0262857,121.4970294,553426896
萬華區,長沙街2段貴陽疏散門堤外便道,106-6-21,25.0413526,121.49919479999998,553726937
萬華區,光復橋下堤外自行車道(華中465燈桿前),106-6-25,25.0154026,121.49476570000002,553226863
萬華區,環河南路1段與忠孝西路2段口,106-6-25,25.0475336,121.5059613,553926953
萬華區,康定路與廣州街口,106-6-26,25.036731,121.4976133,553626925
萬華區,忠孝橋往台北市機車道,106-7-9,25.063710399999998,121.5065347,554226987
萬華區,環河南路2段109號前,106-7-11,25.034818100000003,121.49398490000002,553626919
萬華區,水源快速道,106-7-15,25.0194237,121.50342859999998,553226878
萬華區,萬大路與興寧街66巷22弄口口,106-7-16,25.032256399999998,121.5005428,553526914
萬華區,堤外便道華中橋下,106-7-26,25.0157034,121.49652920000001,553226864
萬華區,忠孝橋往市民大道匝道,106-7-30,25.048657199999997,121.5053478,553926956
萬華區,莒光路172巷,106-6-29,25.0314697,121.502048,553526912
萬華區,華江橋機車道往新北市方向(311050燈桿前),106-6-30,25.0262857,121.4970294,553426896
萬華區,中華路2段416巷9號與中華路  2段口,106-7-1,25.0280037,121.50587560000001,553426903
萬華區,華江橋機車道往新北市方向上橋處,106-7-4,25.0262857,121.4970294,553426896
萬華區,國興路17號,106-7-4,25.026792999999998,121.50549,553426900
萬華區,洛陽街69號,106-7-5,25.047608800000003,121.5076702,553926954
萬華區,西寧南路與武昌街2段口,106-5-20,25.0442823,121.50833090000002,553826946
萬華區,華江橋與華江橋口機車道往板橋方向,106-5-21,25.035455600000002,121.48221770000002,553626918
萬華區,東園街28巷口,106-5-22,25.0264476,121.49490220000001,553426896
萬華區,開封街2段62-4號,106-5-26,25.0467949,121.50655400000001,553926952
萬華區,寶興街140巷17弄,106-5-27,25.023854699999998,121.49450359999999,553326889
萬華區,艋舺大道440號前,106-6-4,25.028551699999998,121.49147009999999,553526902
萬華區,西園路2段240號前,106-6-10,25.028213,121.4950011,553426902
萬華區,西園路1段190號對面,106-6-10,25.0395408,121.500004,553726933
萬華區,桂林路122號前,106-6-11,25.0383529,121.4992223,553726930
萬華區,永福街13號前,106-6-11,25.0382392,121.50568009999999,553726931
萬華區,東園街73巷40弄口,106-6-16,25.026905499999998,121.4989134,553426899
萬華區,艋舺大道22號前,106-6-19,25.034132999999997,121.5050251,553626920
萬華區,康定路與廣州街口口,106-6-24,25.036731,121.4976133,553626925
萬華區,成都路96號,106-6-25,25.043056,121.504314,553826942
萬華區,貴陽街2段142號前,106-6-26,25.0392452,121.5067976,553726934
萬華區,和平西路3段198號前,106-6-26,25.0351866,121.4971248,553626921
萬華區,寶興街30巷,106-6-26,25.0273327,121.49294950000001,553426899
萬華區,華中橋往新北市機車道,106-6-30,25.0138094,121.4954551,553126858
萬華區,萬大路530號前,106-7-30,25.018748000000002,121.49671000000001,553226874
萬華區,萬大路451號,106-7-31,25.0208189,121.4984347,553326881
萬華區,萬大路423巷28弄與萬大路493巷58弄口,106-10-28,25.0201753,121.5003176,553326879
萬華區,環河南路2段173號前,106-11-1,25.032875699999998,121.4924074,553526914
萬華區,內江街160號前,106-11-2,25.0417025,121.5012186,553726939
萬華區,桂林路92號前,106-11-8,25.0383682,121.50024930000001,553726930
萬華區,華中橋與華中橋口往中和機車道第4號燈桿,106-11-12,25.0138094,121.4954551,553126858
萬華區,西園路2段與西藏路口,106-7-31,25.0277299,121.49437990000001,553426900
萬華區,西寧南路與忠孝西路2段口,106-8-26,25.048400199999996,121.5093804,553926956
萬華區,堤外便道華翠疏散門前,106-6-28,25.0307777,121.4882044,553526907
萬華區,西園路2段與莒光路口,106-7-19,25.0310901,121.49688909999998,553526910
萬華區,環河南路2段與和平西路3段口,106-7-18,25.0354727,121.4945116,553626921
萬華區,桂林路與西昌街口,106-8-3,25.0383365,121.5007227,553726930
萬華區,西藏路與西園路2段口,106-8-12,25.028624,121.4956456,553526903
萬華區,西寧南路與長沙街2段口,106-7-14,25.0406677,121.5060476,553726937
萬華區,西園路2段與西藏路口,106-9-2,25.0277299,121.49437990000001,553426900
萬華區,成都路與成都路133巷口口,106-12-20,25.043661,121.50368799999998,553826944
萬華區,西藏路199巷旁,106-12-22,25.028104000000003,121.49995700000001,553426902
萬華區,橋匝道口,106-12-26,25.0262857,121.4970294,553426896
萬華區,和平西路3段與環河南路2段口,106-12-27,25.0354727,121.4945116,553626921
萬華區,萬大路384號,106-9-7,25.022374,121.498822,553326885
萬華區,西藏路與寶興街口,106-11-8,25.0249179,121.49473190000002,553426892
萬華區,中華路2段與廣州街口,106-8-2,25.0347968,121.50561670000002,553626922
萬華區,忠孝橋新北往北市機車道,106-8-2,25.048657199999997,121.5053478,553926956
萬華區,武昌街2段124-2號,106-8-19,25.0453598,121.5037711,553826948
萬華區,中華路1段與開封街2段口,106-10-13,25.0475499,121.5106925,553926955
萬華區,長順街與艋舺大道口,106-10-13,25.0302947,121.49263,553526907
萬華區,廣州街與梧州街口,106-10-16,25.036663600000004,121.49766799999999,553626925
萬華區,環河南路1段與長沙街2段口,106-10-26,25.0475336,121.5059613,553926953
萬華區,青年路68巷與青年路口口,106-11-17,25.023801000000002,121.5023949,553326890
萬華區,武成街與武成街35巷口口,106-11-21,25.018524499999998,121.49535800000001,553226873
萬華區,堤外便道與堤外便道口中興橋下,106-11-27,25.0307777,121.4882044,553526907
萬華區,東園街19號,106-11-27,25.0279247,121.4957273,553426901
萬華區,漢口街2段90巷8弄與漢口街2段90巷口,106-12-5,25.0459278,121.5039652,553826949
萬華區,忠孝西路2段16巷,106-1-2,25.047951,121.50818390000002,553926955
萬華區,開封街2段與漢中街口,106-1-7,25.0461992,121.5079,553826951
萬華區,環河南路1段23號,106-12-6,25.0467811,121.50416829999999,553926951
萬華區,環河南快速道往北洛陽停車場入口,106-12-12,25.0475336,121.5059613,553926953
萬華區,環河南路2段與雙園街口,106-12-15,25.031116,121.49438400000001,553526909
萬華區,水源路與青年路口馬場町河濱公園,106-9-13,25.018603600000002,121.50330430000001,553226875
萬華區,環河南路1段123號,106-9-16,25.0398514,121.4979709,553726933
萬華區,艋舺大道2段與中華路2段口,106-9-20,25.034448100000002,121.50569270000001,553626921
萬華區,忠孝西路2段與西寧南路口,106-8-27,25.0476299,121.5127104,553926955
萬華區,華中橋與華中橋口頭機車道,106-8-31,25.014630800000003,121.49633590000002,553126861
萬華區,昆明街76號,106-9-8,25.0457008,121.5054794,553826949
萬華區,華中橋機車道往中和方向,106-9-12,25.0138094,121.4954551,553126858
萬華區,環河南路1段與中興橋口機車道,106-11-9,25.0448705,121.50156650000001,553826946
萬華區,康定路與桂林路口,106-11-16,25.0372045,121.4993379,553626927
萬華區,環河南路1段與貴陽街2段口,106-11-15,25.047269,121.504476,553926953
萬華區,柳州街與桂林路口,106-11-19,25.0379576,121.5050848,553726930
萬華區,大理街120號,106-11-20,25.03412,121.49718899999999,553626918
萬華區,德昌街67巷與民和街81巷口,106-11-20,25.024647299999998,121.498249,553426892
萬華區,西園路1段與桂林路口,106-11-21,25.0372045,121.4993379,553626927
萬華區,環河南路2段與雙園街口,106-11-26,25.031116,121.49438400000001,553526909
萬華區,萬大路277巷與萬大路237巷10弄口,106-9-30,25.025390899999998,121.50108,553426895
萬華區,桂林路與柳州街口,106-10-3,25.04005,121.50263000000001,553726935
萬華區,西藏路125巷與雙和街口,106-9-22,25.027816199999997,121.50181770000002,553426902
萬華區,環河南路2段與和平西路3段口,106-10-11,25.0354727,121.4945116,553626921
萬華區,艋舺大道與環河南路2段175巷口,106-10-11,25.0323979,121.4925825,553526913
萬華區,桂林路27號,106-10-12,25.0379699,121.5047223,553726930
萬華區,華中橋往北市,106-10-21,25.0154026,121.49476570000002,553226863
萬華區,東園街與西園路2段口,106-10-19,25.0282005,121.49519,553426902
萬華區,西園路1段與桂林路口,106-10-7,25.0372045,121.4993379,553626927
萬華區,堤外便道,106-10-26,25.0307777,121.4882044,553526907
萬華區,中華路1段與峨眉街口,106-8-3,25.045053,121.503097,553826947
萬華區,桂林路86號,106-8-3,25.0383073,121.50088729999999,553726930
萬華區,中華路1段與南寧路口,106-8-12,25.044669600000002,121.5086764,553826947
萬華區,西園路2段261巷12弄12號,106-8-12,25.025435,121.4929129,553426893
萬華區,大理街175巷與環河南路2段口175巷,106-8-26,25.034405,121.4952567,553626919
萬華區,中華路2段316號,106-8-19,25.0296562,121.50421100000001,553526908
萬華區,西寧南路與長沙街2段口,106-9-13,25.0406677,121.5060476,553726937
萬華區,西園路1段與廣州街口,106-7-17,25.037972,121.499495,553726929
萬華區,萬大路與興寧街口,106-7-25,25.0320279,121.50047690000001,553526913
萬華區,萬大路與興寧街66巷22弄口口,106-7-26,25.032256399999998,121.5005428,553526914
萬華區,艋舺大道172號,106-7-27,25.032828,121.50084140000001,553526916
萬華區,青年路152巷與青年路168巷49弄口口,106-7-30,25.0204674,121.50159579999999,553326880
萬華區,忠孝西路2段與西寧南路口前,106-7-31,25.048377399999996,121.50777250000002,553926956
萬華區,西園路2段與寶興街口,106-8-4,25.026501,121.49378,553426896
萬華區,青年路與水源路口,106-8-5,25.0219055,121.5021848,553326885
萬華區,桂林路236號,106-8-5,25.03858,121.49596399999999,553726930
萬華區,艋舺大道與西園路1段口東往西康定到西園路段,106-8-5,25.036059100000003,121.50179920000001,553626924
萬華區,西園路2段183號,106-8-6,25.0277125,121.49502290000001,553426900
萬華區,萬大路423巷28弄口,106-1-3,25.020449399999997,121.50012340000002,553326880
萬華區,西園路2段與西藏路口,106-1-9,25.0277299,121.49437990000001,553426900
萬華區,寶興街188巷口,106-1-18,25.0234366,121.49506059999999,553326888
萬華區,萬大路423巷28弄與萬大路493巷口,106-1-22,25.020449399999997,121.50012340000002,553326880
萬華區,中華路1段與洛陽街口,106-1-26,25.0475336,121.5059613,553926953
萬華區,486巷與萬大路486巷11弄口(萬大路486巷9號前),106-2-2,25.0196534,121.4967182,553326877
萬華區,中華路1段與艋舺大道口口,106-2-13,25.035035999999998,121.502494,553626922
萬華區,忠孝西路2段與昆明街口,106-2-17,25.045818,121.505821,553826949
萬華區,西藏路125巷與西藏路口口,106-2-21,25.0259789,121.5033178,553426897
萬華區,康定路與廣州街口,106-1-1,25.036731,121.4976133,553626925
萬華區,艋舺大道與康定路口,106-1-2,25.0332225,121.4996955,553626916
萬華區,貴陽街2段232巷與貴陽街2段口,106-2-15,25.04005,121.50263000000001,553726935
萬華區,和平西路3段382巷與和平西路3段口,106-2-15,25.035330899999998,121.49157350000002,553626920
萬華區,和平西路3段284號,106-2-8,25.0352766,121.4950322,553626921
萬華區,康定路248號與康定路口,106-2-5,25.0375936,121.50152450000002,553726928
萬華區,環河南路1段123號,106-1-24,25.0398514,121.4979709,553726933
萬華區,萬大路與艋舺大道口,106-1-1,25.032893100000003,121.49769009999999,553526915
萬華區,內江街與西昌街口,106-1-5,25.0383365,121.5007227,553726930
萬華區,西藏路與萬大路口,106-1-10,25.029586600000002,121.5003811,553526907
萬華區,昆明街303號,106-1-11,25.0356843,121.50343319999999,553626924
萬華區,青年路與水源路口,106-1-15,25.0219055,121.5021848,553326885
萬華區,德昌街261巷與德昌街口口,106-2-7,25.022534,121.49241599999999,553326884
萬華區,西寧南路與洛陽街口口,106-2-8,25.048266,121.507648,553926955
萬華區,萬大路230號前,106-1-12,25.0267165,121.50032790000002,553426898
萬華區,梧州街與廣州街口,106-1-4,25.036663600000004,121.49766799999999,553626925
萬華區,萬大路90巷20號前,106-1-4,25.030248800000003,121.5001617,553526908
萬華區,中華路2段390巷與中華路2段364巷1弄口,106-1-10,25.0287021,121.5035172,553526905
萬華區,富民路21號,106-1-13,25.0190432,121.4979615,553226875
萬華區,萬大路322巷口,106-1-14,25.024434,121.50003899999999,553426892
萬華區,華中橋機車道往北市,106-1-17,25.0138094,121.4954551,553126858
萬華區,康定路與環河南路1段口,106-1-18,25.045975,121.502751,553826949
萬華區,西園路2段與西藏路口,106-1-19,25.0277299,121.49437990000001,553426900
萬華區,萬大路284號,106-1-22,25.0254883,121.5003061,553426895
萬華區,西園路2段與西藏路口,106-2-3,25.0277299,121.49437990000001,553426900
萬華區,康定路287巷與康定路口口,106-2-11,25.0340657,121.50150079999999,553626919
萬華區,峨眉街137號,106-3-1,25.044818399999997,121.5019035,553826946
萬華區,環河南路1段與忠孝西路2段口,106-2-22,25.0475336,121.5059613,553926953
萬華區,忠孝西路2段18號與和平西路2段口前,106-2-23,25.048196,121.50844099999999,553926956
萬華區,武成街與萬大路口,106-3-9,25.020311,121.495002,553326878
萬華區,中華路1段與南寧路口,106-3-9,25.044669600000002,121.5086764,553826947
萬華區,雙園街21巷與雙園街口,106-3-30,25.031074,121.4940485,553526909
萬華區,桂林路101號前,106-4-7,25.038548300000002,121.5012136,553726931
萬華區,艋舺大道389號前,106-4-9,25.031156699999997,121.49305840000001,553526909
萬華區,堤外便道與光復橋口下方,106-1-2,25.0307777,121.4882044,553526907
萬華區,堤外便道與中興橋口下方,106-1-3,25.0307777,121.4882044,553526907
萬華區,萬大路491號,106-1-6,25.020133899999998,121.49798740000001,553326878
萬華區,西園路1段與和平西路3段口,106-1-7,25.035621399999997,121.4992307,553626923
萬華區,堤外便道與光復橋口下方,106-1-11,25.0307777,121.4882044,553526907
萬華區,堤外便道與華中河濱公園口往北,106-1-17,25.034607,121.488616,553626918
萬華區,西園路2段與西藏路口,106-1-18,25.0277299,121.49437990000001,553426900
萬華區,康定路與桂林路口,106-1-21,25.0372045,121.4993379,553626927
萬華區,康定路與永福街口,106-1-22,25.035035999999998,121.502494,553626922
萬華區,雙和街與中華路2段416巷66弄口,106-1-25,25.0278506,121.50197209999999,553426902
萬華區,萬大路423巷與萬大路423巷20弄口,106-1-26,25.0212746,121.49943700000001,553326882
萬華區,東園街與德昌街口,106-1-27,25.0250509,121.4977154,553426893
萬華區,西寧南路163號,106-1-27,25.043287,121.506229,553826943
萬華區,環河南路1段23-5號,106-2-6,25.0466935,121.50407679999999,553926951
萬華區,環河南路1段350巷,106-2-7,25.0398514,121.4979709,553726933
萬華區,堤外便道與忠孝橋口下方,106-2-17,25.0307777,121.4882044,553526907
萬華區,中華路1段與開封街2段口,106-2-22,25.0475499,121.5106925,553926955
萬華區,堤外便道中興橋,106-3-2,25.0504831,121.49017079999999,553926957
萬華區,西寧南路36號,106-3-3,25.04514,121.506455,553826948
萬華區,漢中街與漢中街50巷口,106-1-26,25.0441478,121.50673290000002,553826946
萬華區,昆明街與桂林路口,106-3-7,25.0378908,121.5039437,553726930
萬華區,萬大路與華中橋口下迴轉道,106-3-9,25.026561899999997,121.5006744,553426898
萬華區,堤外便道與富民路口底水門口,106-3-9,25.0307777,121.4882044,553526907
萬華區,萬大路與艋舺大道口,106-3-9,25.032893100000003,121.49769009999999,553526915
萬華區,堤外便道與光復橋口下方,106-3-12,25.0307777,121.4882044,553526907
萬華區,萬大路207號,106-3-17,25.0273009,121.5006712,553426900
萬華區,中華路2段與南寧路口,106-6-7,25.0284533,121.5055324,553426905
萬華區,東園街35巷與東園街口,106-6-7,25.0264476,121.49490220000001,553426896
萬華區,水源路187號,106-6-13,25.0236602,121.51090400000001,553326892
萬華區,萬大路343號,106-6-15,25.0236388,121.50013090000002,553326889
萬華區,艋舺大道與西園路2段320巷口,106-6-15,25.026044,121.4923983,553426895
萬華區,西園路2段281巷,106-6-22,25.024235,121.49223789999999,553426889
萬華區,艋舺大道438號,106-6-26,25.028485699999997,121.49151979999999,553426902
萬華區,西園路2段13巷與西園路2段11巷口口,106-6-26,25.0323737,121.49882240000002,553526914
萬華區,桂林路117號,106-1-3,25.0385694,121.5004288,553726930
萬華區,和平西路3段與艋舺大道口,106-1-5,25.035035999999998,121.502494,553626922
萬華區,西寧南路與漢口街2段口,106-1-20,25.0455028,121.5060301,553826949
萬華區,中華路1段與開封街2段口,106-1-25,25.0475499,121.5106925,553926955
萬華區,武昌街2段與環河南路1段口,106-1-26,25.045743899999998,121.50285090000001,553826949
萬華區,康定路與艋舺大道口,106-1-26,25.0402807,121.50264820000001,553726935
萬華區,堤外便道與貴陽街2段口疏散門,106-1-28,25.0307777,121.4882044,553526907
萬華區,成都路68號,106-2-3,25.042837,121.50523899999999,553826942
萬華區,西藏路與寶興街口,106-2-8,25.0249179,121.49473190000002,553426892
萬華區,環河南路2段與長順街口,106-2-9,25.0313487,121.49074409999999,553526909
萬華區,西園路2段與西藏路口,106-2-13,25.0277299,121.49437990000001,553426900
萬華區,桂林路與環河南路1段口,106-2-14,25.038826,121.49688190000002,553726930
萬華區,中華路1段176號,106-1-2,25.0475499,121.5106925,553926955
萬華區,堤外便道與長順街口底水門口,106-1-9,25.032412899999997,121.4886637,553526912
萬華區,武成街33號,106-1-14,25.018496,121.495429,553226873
萬華區,萬大路與東園街口,106-1-14,25.0264476,121.49490220000001,553426896
萬華區,東園街50號,106-1-17,25.026394399999997,121.4961379,553426897
萬華區,峨眉街與康定路口,106-1-18,25.0447182,121.5031916,553826946
萬華區,西園路2段與艋舺大道口,106-1-18,25.032893100000003,121.49769009999999,553526915
萬華區,中華路2段33號對面,106-3-18,25.034145300000002,121.50557479999999,553626920
萬華區,忠孝西路2段與西寧南路口,106-3-18,25.0476299,121.5127104,553926955
萬華區,萬大路與莒光路口,106-3-30,25.0311863,121.5006183,553526911
萬華區,桂林路139巷口,106-4-3,25.0390191,121.49928999999999,553726931
萬華區,153巷與中華路2段130巷口(莒光路153巷8號前),106-1-19,25.0313437,121.50508500000001,553526912
萬華區,環河南路1段與中興橋口往新北市機慢車道,106-1-24,25.0504519,121.49069399999999,553926957
萬華區,堤外便道與長沙街2段口底水門口,106-2-1,25.0307777,121.4882044,553526907
萬華區,中華路1段與成都路口,106-2-2,25.0475499,121.5106925,553926955
萬華區,西園路2段140巷與艋舺大道口,106-2-17,25.0277204,121.49439369999999,553426900
萬華區,環河南路2段270號,106-3-4,25.0326944,121.49142179999998,553526913
萬華區,環河南快速道往北,106-3-9,25.036913199999997,121.49537859999998,553626925
萬華區,青年路與堤外便道口自行車道,106-1-2,25.023178299999998,121.5027112,553326889
萬華區,中華路2段與水源路口,106-2-15,25.0478439,121.50918899999999,553926955
萬華區,忠孝西路2段與西寧南路口,106-2-16,25.0476299,121.5127104,553926955
萬華區,萬大路493巷,106-1-29,25.019831399999998,121.4989936,553326878
萬華區,光復橋與堤外便道口華中188桿,106-1-17,25.0262857,121.4970294,553426896
萬華區,萬大路與華中橋018段口華中018段,106-1-17,25.0154026,121.49476570000002,553226863
萬華區,萬大路423巷28弄,106-1-22,25.020449399999997,121.50012340000002,553326880
萬華區,艋舺大道與興寧街口,106-1-23,25.0322329,121.5014159,553526914
萬華區,內江街76巷口,106-1-26,25.042428,121.505206,553826941
萬華區,桂林路與西昌街口,106-2-6,25.0383365,121.5007227,553726930
萬華區,青年路102號與青年路口,106-2-21,25.0219055,121.5021848,553326885
萬華區,德昌街181號,106-2-27,25.0234782,121.49458130000001,553326888
萬華區,和平西路3段286巷,106-2-20,25.0350949,121.49493740000001,553626920
萬華區,西寧南路72號,106-3-6,25.0433292,121.50598629999999,553826944
萬華區,昆明街與長沙街2段口,106-3-8,25.040357800000002,121.5043175,553726936
萬華區,華中橋往台北市機慢車道,106-4-4,25.0138094,121.4954551,553126858
萬華區,華江橋往台北市機慢車道,106-4-7,25.034556600000002,121.489337,553626918
萬華區,華江橋與華江橋口接環河快速道路往北匝道,106-4-22,25.0510056,121.50666059999999,553926961
萬華區,廣州街217號,106-4-24,25.036800600000003,121.499096,553626926
萬華區,西園路1段與貴陽街2段口,106-4-27,25.0392452,121.5067976,553726934
萬華區,萬大路325號,106-4-28,25.024254199999998,121.5004657,553426891
萬華區,萬大路277巷10號,106-5-3,25.0253457,121.50089650000001,553426895
萬華區,西園路2段與西藏路口,106-5-4,25.0277299,121.49437990000001,553426900
萬華區,東園街140巷16號,106-5-7,25.0232396,121.49681840000001,553326888
萬華區,西園路2段240號,106-5-17,25.028213,121.4950011,553426902
萬華區,光復橋往台北市台北端,106-5-23,25.026981,121.49409990000001,553426898
萬華區,西園路2段與寶興街口,106-5-29,25.026501,121.49378,553426896
萬華區,西寧南路63-4號,106-5-29,25.0463979,121.507043,553826951
萬華區,內江街與昆明街口,106-6-16,25.045818,121.505821,553826949
萬華區,西寧南路32號與西寧南路口,106-7-2,25.048455999999998,121.507236,553926956
萬華區,昆明街與內江街口,106-7-8,25.042428,121.505206,553826941
萬華區,環河南路2段與桂林路口,106-4-22,25.034101899999996,121.493284,553626917
萬華區,永福街與西寧南路口,106-7-13,36.617134,101.778223,809710640
萬華區,萬大路187巷2號與萬大路口,106-7-21,25.0279741,121.50071499999999,553426902
萬華區,堤外便道與堤外便道口往北近光復橋,106-8-2,25.0307777,121.4882044,553526907
萬華區,萬大路451號與萬大路449巷口,106-8-16,25.0208189,121.4984347,553326881
萬華區,萬大路與萬大路90巷口,106-8-20,25.0302819,121.50050459999999,553526909
萬華區,萬大路531號前(富民路),106-3-15,25.0184352,121.49688300000001,553226873
萬華區,西園路2段276號,106-3-15,25.0277204,121.49439369999999,553426900
萬華區,康定路與貴陽街2段口,106-3-15,25.04005,121.50263000000001,553726935
萬華區,西藏路201號,106-3-16,25.0291069,121.4988346,553526905
萬華區,昆明街76號前,106-3-22,25.0457803,121.50551659999999,553826949
萬華區,環河南路1段與長沙街2段口,106-9-27,25.0475336,121.5059613,553926953
萬華區,康定路與內江街口,106-10-31,25.0416993,121.50228100000001,553726939
萬華區,西園路1段與廣州街口,106-6-15,25.037972,121.499495,553726929
萬華區,貴陽街2段144號前,106-3-23,25.0401495,121.501673,553726935
萬華區,萬大路與民和街口,106-3-26,25.024213,121.495231,553426890
萬華區,艋舺大道與雙園街口,106-3-28,25.031074,121.4940485,553526909
萬華區,西園路1段與和平西路3段口,106-4-1,25.035621399999997,121.4992307,553626923
萬華區,萬板大橋往新北市汽車道,106-4-2,25.029303600000002,121.48629840000002,553526903
